stop_id,stop_name,stop_code,stop_lat,stop_lon
8220DB000002,Parnell Square West,2,53.35224392,-6.263693193
8220DB000003,Granby Place,3,53.35230811,-6.263780716
8220DB000004,Rotunda Hospital,4,53.35256531,-6.264160838
8220DB000006,Saint Martin's Chapel,6,53.35274013,-6.264439156
8220DB000007,Rotunda Hospital,7,53.35283171,-6.264555613
8220DB000008,Parnell Square West,8,53.35326307,-6.265169028
8220DB000010,Parnell Square West,10,53.35338312,-6.265389489
8220DB000011,Upper Dorset St (St.Joseph's Parade),11,53.35709832,-6.264367218
8220DB000012,Upper Dorset St (St.Joseph's Parade),12,53.35678741,-6.264620231
8220DB000014,Lower Dorset Street,14,53.35853956,-6.262731094
8220DB000015,Lower Dorset Street,15,53.36024874,-6.260978774
8220DB000016,John Paul Park,16,53.36641872,-6.305628132
8220DB000017,Outside Train Station,17,53.36306934,-6.258399655
8220DB000018,Lower Drumcondra Road,18,53.3658465,-6.255927152
8220DB000019,Lower Drumcondra Road,19,53.36713453,-6.25549885
8220DB000021,Saint Patrick's College,21,53.370092,-6.254295947
8220DB000022,Home Farm Road (Achill Road),22,53.37350339,-6.252788732
8220DB000023,Ferguson Road,23,53.37422806,-6.256245983
8220DB000024,Home Farm Road,24,53.37513272,-6.260342306
8220DB000025,Rathlin Road,25,53.37589947,-6.263617736
8220DB000027,Ballymun Road (Griffith Avenue),27,53.37943874,-6.266570239
8220DB000028,Glasnevin Tennis Club,28,53.38157842,-6.265987247
8220DB000029,Ballymun Road,29,53.38348825,-6.265669101
8220DB000030,Pope John Paul II Park,30,53.37032249,-6.304571486
8220DB000031,Maolbuille Road,31,53.38603301,-6.268843052
8220DB000032,Saint Pappin's Road,32,53.38619557,-6.271377201
8220DB000033,Glasnevin Drive,33,53.38871771,-6.271756115
8220DB000035,Dean Swift Road,35,53.38620679,-6.270910693
8220DB000036,Saint Pappin's Road,36,53.38612685,-6.26787707
8220DB000037,DCU Ballymun Road,37,53.38534618,-6.264871956
8220DB000038,Ballymun Road,38,53.38223638,-6.265494497
8220DB000039,Ballymun Road (Griffith Avenue),39,53.38041397,-6.265643736
8220DB000040,Mobhi Road,40,53.37666077,-6.264668969
8220DB000041,Home Farm Road,41,53.37555905,-6.261842985
8220DB000042,Ferguson Road,42,53.37465005,-6.257446169
8220DB000043,Home Farm Road (Achill Road),43,53.37386078,-6.253871269
8220DB000044,Homefarm Road,44,53.37301719,-6.252117283
8220DB000045,Upper Drumcondra Road,45,53.36988298,-6.254139184
8220DB000046,Botanic Avenue,46,53.36715052,-6.255362951
8220DB000047,Near Train Station,47,53.36390692,-6.257283606
8220DB000048,Lower Drumcondra Road,48,53.36231961,-6.258760798
8220DB000049,Lower Dorset Street,49,53.35995954,-6.260870353
8220DB000050,Lower Dorset Street,50,53.35856872,-6.262264155
8220DB000051,Upper Dorset St (Temple Street),51,53.35781939,-6.263271207
8220DB000052,Upper Dorset St (St.Joseph's Parade),52,53.35664238,-6.264535983
8220DB000053,North Circular Road (Lower Dorset Street),53,53.35998798,-6.262822417
8220DB000054,North Circular Road (Mater Hospital),54,53.36014451,-6.265550569
8220DB000055,Mater Hospital Mortuary,55,53.36041139,-6.268454564
8220DB000056,Cabra Road (North Circular Road),56,53.36076081,-6.276448736
8220DB000057,Cabra Road (North Circular Road),57,53.36076298,-6.276598899
8220DB000058,Cabra Road (Charleville Road),58,53.36093705,-6.281189548
8220DB000059,Cabra Road (near Annamoe Terrace),59,53.36107981,-6.284864955
8220DB000060,Cabra Road (Quarry Road),60,53.36123258,-6.289246167
8220DB000063,Faussagh Avenue,63,53.36679222,-6.29273509
8220DB000064,Faussagh Avenue (Church),64,53.36707938,-6.295218122
8220DB000065,Faussagh Avenue (Dingle Road),65,53.36724545,-6.298036616
8220DB000066,Faussagh Avenue (Dingle Road),66,53.36729467,-6.300859781
8220DB000068,Ventry Drive,68,53.36906831,-6.304230572
8220DB000069,Ventry Park Estate,69,53.37138337,-6.303327054
8220DB000071,Pope John Paul II Park,71,53.37024849,-6.304424142
8220DB000072,Ventry Drive,72,53.36896052,-6.304234854
8220DB000073,Faussagh Avenue (Dingle Road),73,53.36739134,-6.30070566
8220DB000074,Faussagh Avenue (Church),74,53.36716366,-6.295455193
8220DB000075,Faussagh Avenue,75,53.36653803,-6.29130266
8220DB000077,Cabra Road (Quarry Road),77,53.36130897,-6.289558636
8220DB000078,Cabra Road (near Annamoe Terrace),78,53.36112995,-6.283976458
8220DB000079,Cabra Road (Charleville Road),79,53.36101205,-6.280780851
8220DB000080,Cabra Road (North Circular Road),80,53.36085398,-6.276054324
8220DB000081,North Circular Road (Phibsborough Road),81,53.36087553,-6.271951611
8220DB000082,Royal Canal Bank,82,53.36079055,-6.271669574
8220DB000083,North Circular Road (Mater Hospital),83,53.36027027,-6.265545461
8220DB000084,North Circular Road (Leo Street),84,53.36015358,-6.263702146
8220DB000085,Homefarm Road,85,53.37390318,-6.251855554
8220DB000086,Garda Station,86,53.37605,-6.251151369
8220DB000087,Sherkin Gardens,87,53.37675151,-6.254865268
8220DB000088,Walnut Rise,88,53.37728682,-6.257669185
8220DB000089,Griffith Avenue (Lambay Road),89,53.37802668,-6.261562105
8220DB000090,Ballymun Road (St.Pappin's Road),90,53.38638531,-6.265250648
8220DB000091,Ballymun Road (Glasnevin Avenue),91,53.38842767,-6.265393116
8220DB000092,Ballymun Library,92,53.38983712,-6.264659214
8220DB000093,Ballymun Road (Opp Shanlis Road),93,53.39229249,-6.264153341
8220DB000094,Civic Centre,94,53.39603476,-6.26437696
8220DB000102,Balbutcher Lane (Árd Na Meala),102,53.39776387,-6.267705193
8220DB000104,Balbutcher Lane (Carrig Road),104,53.39969927,-6.276604703
8220DB000105,Balbutcher Lane (Cranogue Road),105,53.40292828,-6.281753183
8220DB000107,Balbutcher Lane (Cranogue Road),107,53.40203541,-6.279668587
8220DB000108,Knowth Court,108,53.3997996,-6.27670592
8220DB000110,Balbutcher Lane (Árd Na Meala),110,53.39793973,-6.268675528
8220DB000112,Civic Centre,112,53.39614564,-6.263966435
8220DB000113,Comprehensive School,113,53.39226774,-6.263688227
8220DB000114,Ballymun Road (Shanliss Road),114,53.39133332,-6.263711229
8220DB000115,Ballymun Road (Albert College Drive),115,53.38793714,-6.265037196
8220DB000116,Griffith Lawns,116,53.37769324,-6.259651718
8220DB000117,Walnut Rise,117,53.37736569,-6.257530686
8220DB000118,Sherkin Gardens,118,53.37664256,-6.253562055
8220DB000119,Upper Drumcondra Road (Griffith Avenue),119,53.37508335,-6.250815227
8220DB000126,Nursing Home,126,53.39909547,-6.264086961
8220DB000127,Silver Swan Nursing Home,127,53.39910731,-6.263665399
8220DB000128,Glasnevin Avenue (Ballymun Road),128,53.38931475,-6.265823133
8220DB000129,Glasnevin Ave (Glasnevin Dr),129,53.3898901,-6.27140791
8220DB000130,Glasnevin Park,130,53.3900918,-6.274166243
8220DB000131,Glasnevin Avenue (Beneavin Drive),131,53.39038589,-6.278349237
8220DB000132,Beneavin Park,132,53.39047475,-6.282645798
8220DB000133,Grove Park Road,133,53.39078773,-6.286286843
8220DB000134,Sycamore Road (Willow Park Crescent),134,53.39309438,-6.286058838
8220DB000136,McKee Road,136,53.3943802,-6.289856597
8220DB000137,Clancy Avenue,137,53.3923165,-6.292615767
8220DB000138,Saint Canice's School,138,53.38992169,-6.292335743
8220DB000139,Glasnevin Avenue,139,53.39060125,-6.286444691
8220DB000140,Beneavin Park,140,53.3906503,-6.282353055
8220DB000141,Glasnevin Avenue (Beneavin Drive),141,53.39044487,-6.278076218
8220DB000142,Glasnevin Park,142,53.39019061,-6.274162245
8220DB000143,Glasnevin Ave (Glasnevin Dr),143,53.38986773,-6.269243734
8220DB000146,Na Fianna Football Ground,146,53.37516523,-6.26504541
8220DB000147,Dean Swift Bridge,147,53.37248023,-6.265830862
8220DB000148,Mobhi Road (Botanic Road),148,53.37066118,-6.268068872
8220DB000149,Mobhi Road (Mobhí Drive),149,53.37313837,-6.265969446
8220DB000150,Na Fianna Football Ground,150,53.37565885,-6.264995283
8220DB000151,Botanic Gardens,151,53.37195526,-6.269293828
8220DB000153,Meteorological Office,153,53.37573255,-6.270072533
8220DB000154,Saint Brigid's School,154,53.37725878,-6.275542015
8220DB000155,Old Finglas Road,155,53.37787403,-6.279560505
8220DB000156,Tolka Road Estate #1,156,53.37862339,-6.281664739
8220DB000157,Griffith Road,157,53.38041141,-6.281622802
8220DB000158,Griffith Road,158,53.38134872,-6.283674539
8220DB000159,Griffith Parade,159,53.3827835,-6.282820088
8220DB000164,Beneavin Road,164,53.38843015,-6.280472897
8220DB000165,"Beneavin Road, Junction Beneavin Park",165,53.38902568,-6.283756584
8220DB000166,Beneavin School,166,53.38958338,-6.286290122
8220DB000167,Beneavin Road (Ballygall Road East),167,53.39018639,-6.286972559
8220DB000168,"Beneavin Road, Junction Beneavin Park",168,53.38925077,-6.28440907
8220DB000169,Beneavin Road,169,53.38843372,-6.280096884
8220DB000173,Glasnamana Place,173,53.3821214,-6.280531725
8220DB000174,Tolka Road Estate,174,53.38068014,-6.280935539
8220DB000175,Tolka Road Estate #1,175,53.37842404,-6.281552516
8220DB000176,Old Finglas Road,176,53.37803183,-6.279283584
8220DB000177,Ballygall Road East,177,53.38046816,-6.276209012
8220DB000178,West Park Drive,178,53.38188106,-6.276332322
8220DB000179,Ballygall Road East,179,53.38030321,-6.275990197
8220DB000181,Old Finglas Road (Cremore Ave),181,53.37714963,-6.274208685
8220DB000182,Meteorological Office,182,53.37564887,-6.269880531
8220DB000183,Botanic Gardens,183,53.37231571,-6.268738165
8220DB000184,"Botanic Road,Cliftonville",184,53.36969448,-6.268964699
8220DB000185,Botanic Road,185,53.36809195,-6.270021503
8220DB000186,Prospect Road,186,53.36534614,-6.271575323
8220DB000187,Phibsboro Road,187,53.36272505,-6.272432712
8220DB000188,Phibsboro Road (NCR),188,53.3601117,-6.272583513
8220DB000189,Broadstone,189,53.35716744,-6.273468816
8220DB000190,Broadstone Depot,190,53.35511675,-6.273371437
8220DB000191,Youth Club,191,53.35506787,-6.269377287
8220DB000192,Mountjoy Street,192,53.35644191,-6.268059634
8220DB000193,McKee Road,193,53.39118711,-6.294089367
8220DB000194,Saint Dominic's Youth Club,194,53.35504043,-6.269964297
8220DB000195,Constitution Hill,195,53.35500171,-6.273496272
8220DB000196,Broadstone Depot,196,53.3568747,-6.273736052
8220DB000197,Phibsboro Road (Monck Place),197,53.35895263,-6.273231374
8220DB000198,Phibsboro Shopping Centre,198,53.36162538,-6.27283781
8220DB000199,Phibsboro Road,199,53.36361283,-6.27229161
8220DB000200,Prospect Way,200,53.36742269,-6.271596444
8220DB000201,Botanic Road,201,53.3682819,-6.270103972
8220DB000202,Fairfield Road,202,53.3700711,-6.268904342
8220DB000203,Whitehall Garda Station,203,53.37639169,-6.24993492
8220DB000204,Highfield Hospital,204,53.37958792,-6.246632147
8220DB000205,Swords Road,205,53.38141148,-6.245339593
8220DB000206,Collins Avenue West ( Larkhill Road),206,53.3835279,-6.247462422
8220DB000207,Larkhill Road,207,53.38482141,-6.249859758
8220DB000208,Glendun Road,208,53.38662654,-6.247921465
8220DB000209,Glentow Estate,209,53.38733333,-6.245862786
8220DB000210,Crestfield Road,210,53.3875312,-6.24832031
8220DB000211,Saint Aidan's School,211,53.38426289,-6.249161068
8220DB000212,Collins Avenue West ( Larkhill Road),212,53.38317767,-6.246259136
8220DB000213,Iveragh Road,213,53.38140485,-6.244888894
8220DB000214,Highfield Hospital,214,53.37930945,-6.246643589
8220DB000215,Collins Avenue West,215,53.38186308,-6.242434776
8220DB000216,Beaumont Road,216,53.3823306,-6.238176296
8220DB000217,Beaumont Road,217,53.3843234,-6.236786098
8220DB000218,Shantalla Road (Beaumont Road),218,53.38557047,-6.233592482
8220DB000220,Swords Road,220,53.38793134,-6.244966185
8220DB000233,Shantalla Road (Beaumont Road),233,53.38582109,-6.233521969
8220DB000234,Beaumont Grove,234,53.38495026,-6.234805818
8220DB000235,Beaumont Road Collinswood Estate,235,53.38329639,-6.237234433
8220DB000236,Yellow Road,236,53.38202452,-6.238143837
8220DB000237,Collins Avenue,237,53.38203171,-6.243510176
8220DB000242,Beaumont Road,242,53.38564569,-6.231995775
8220DB000243,Beaumont Road,243,53.38577984,-6.22952465
8220DB000244,Elmount Rise,244,53.38498901,-6.223483865
8220DB000245,Whitethorn Crescent,245,53.38447202,-6.219551582
8220DB000246,Beaumont Recreational Centre,246,53.38515025,-6.216215853
8220DB000247,Ardlea Road (near A1 pub),247,53.38696695,-6.214486107
8220DB000248,Maryfield Drive,248,53.38556434,-6.214454607
8220DB000249,Beaumont Recreational Centre,249,53.38493355,-6.216149745
8220DB000250,Whitethorn Crescent,250,53.38441923,-6.220230292
8220DB000251,Skelly's Lane (Elmount Rise),251,53.38485047,-6.223234062
8220DB000252,Skelly's Lane (Opp Beaumont Crescent),252,53.38556779,-6.227954893
8220DB000253,Beaumont Hospital,253,53.38994573,-6.224375021
8220DB000254,Beaumont Hospital,254,53.39026507,-6.224091087
8220DB000255,Coolgreena Road,255,53.38558468,-6.23151722
8220DB000260,Parnell Square East,260,53.35428479,-6.263114478
8220DB000261,Parnell Square North,261,53.35404708,-6.262838713
8220DB000262,Garden of Remembrance,262,53.35394652,-6.262722621
8220DB000263,Garden of Remembrance,263,53.35374519,-6.262475427
8220DB000264,Gaelscoil Cholaiste Mhuire,264,53.35352588,-6.262228965
8220DB000265,Gate Theatre,265,53.35336113,-6.262025354
8220DB000270,Upper O'Connell Street,270,53.35061463,-6.26043967
8220DB000271,Lower O'Connell Street,271,53.34858826,-6.259545833
8220DB000272,Upper O'Connell Street,272,53.35145572,-6.260795984
8220DB000273,O'Connell Bridge,273,53.347238,-6.258789745
8220DB000274,Millennium Spire,274,53.35034843,-6.260675831
8220DB000276,River Road,276,53.3774022,-6.331796583
8220DB000277,Citizens Information Service,277,53.35081356,-6.260521698
8220DB000278,Cathal Brugha Street,278,53.35135252,-6.261115643
8220DB000279,Millennium Spire,279,53.35013131,-6.260579522
8220DB000281,Dublin Bus Head Office,281,53.35091828,-6.260923017
8220DB000284,Rathbourne Avenue,284,53.3772822,-6.328359239
8220DB000288,Irish Life Mall,288,53.3491331,-6.255618183
8220DB000289,Irish Life Centre,289,53.34898983,-6.256269933
8220DB000291,National Lottery Head Quarters,291,53.34889914,-6.256829408
8220DB000292,Irish Life Mall,292,53.34919093,-6.255270338
8220DB000293,National Lottery Head Quarters,293,53.34885773,-6.257071431
8220DB000296,Marlborough Street,296,53.34910947,-6.257692041
8220DB000297,Eden Quay,297,53.34811632,-6.256771226
8220DB000298,Liberty Hall,298,53.3481735,-6.256378356
8220DB000299,Liberty Hall,299,53.34822213,-6.256015875
8220DB000300,Liberty Hall,300,53.34827229,-6.255758476
8220DB000301,Marlborough Street,301,53.34803372,-6.256654431
8220DB000302,Eden Quay,302,53.34808191,-6.256261929
8220DB000303,Eden Quay,303,53.3481138946347,-6.25599025245805
8220DB000307,O'Donovan Road,307,53.33457687,-6.280072457
8220DB000308,Oscar Square,308,53.33677097,-6.279518649
8220DB000309,Ardee Street,309,53.33784968,-6.27890458
8220DB000310,Lower O'Connell Street,310,53.34867479,-6.259932849
8220DB000312,Wellington Quay,312,53.34546727,-6.266191509
8220DB000313,Lower Liffey Street,313,53.3468977,-6.261957852
8220DB000315,Bachelors Walk,315,53.34692596,-6.262046823
8220DB000316,Arlington Hotel,316,53.3472644892753,-6.26060612277431
8220DB000317,Westmoreland Street,317,53.34624441,-6.259070557
8220DB000318,Westmoreland Street (O'Connell Bridge),318,53.34629853,-6.259083372
8220DB000319,Westmoreland Street,319,53.34596879,-6.259277046
8220DB000320,Westmoreland Street,320,53.34564519,-6.259275211
8220DB000322,Gulliver's Retail Park,322,53.40425499,-6.265350845
8220DB000325,Aston Quay,325,53.34673298,-6.259906796
8220DB000326,Aston Quay,326,53.34657939,-6.260468794
8220DB000328,Aston Quay,328,53.34642623,-6.261060811
8220DB000329,Aston Quay,329,53.34630944,-6.261681383
8220DB000333,O'Connell Bridge House,333,53.34666507,-6.258332451
8220DB000334,D'Olier Street,334,53.34655465,-6.258156712
8220DB000335,D'Olier House,335,53.34636184,-6.257879193
8220DB000336,Ashfield House,336,53.34625142,-6.257703456
8220DB000337,Irish Times,337,53.3458989,-6.258183446
8220DB000339,Burgh Quay,339,53.34730963,-6.256924304
8220DB000340,Pearse Street Garda Station,340,53.34596789,-6.256137932
8220DB000341,Townsend Street,341,53.34601895,-6.256556405
8220DB000342,Trinity College,342,53.34548459,-6.256893624
8220DB000345,Erne Street,345,53.34548435946,-6.25626280598803
8220DB000346,Garda Station,346,53.34558909,-6.256664064
8220DB000347,Trinity College,347,53.34547824,-6.257689926
8220DB000348,Trinity College,348,53.34520241,-6.258497213
8220DB000349,Trinity College,349,53.34532466,-6.258251915
8220DB000350,Lower Sandwith Street,350,53.34564991,-6.249767514
8220DB000351,Pearse Street,351,53.34339132,-6.24530928
8220DB000352,Pearse Square,352,53.3429714,-6.242427889
8220DB000353,Pearse Street,353,53.3426154,-6.239619013
8220DB000354,Barrow Street,354,53.3422172,-6.236391403
8220DB000355,Ringsend Bus Depot,355,53.34179916,-6.233044524
8220DB000356,Bridge Street,356,53.34190302,-6.226717443
8220DB000357,Irishtown Road,357,53.33917082,-6.223106467
8220DB000359,Sean Moore Road (Pine Road),359,53.34071812,-6.214166428
8220DB000371,Irishtown Gospel Hall,371,53.33859504,-6.223070338
8220DB000372,Star Of The Sea Church,372,53.33547939,-6.219671053
8220DB000373,Farney Park,373,53.33425759,-6.217905028
8220DB000374,Sandymount Road,374,53.33317387,-6.216358573
8220DB000375,Seafort Avenue,375,53.33399826,-6.21438714
8220DB000376,Strand Road (Lea Road),376,53.33071275,-6.20926927
8220DB000377,Strand Road (Gilford Road),377,53.32874667,-6.208826138
8220DB000378,Sandymount Tower,378,53.32564086,-6.207304842
8220DB000380,Saint John's Road East,380,53.32468072,-6.209206647
8220DB000381,Saint John's Church,381,53.32419666,-6.212289434
8220DB000382,Seamount House,382,53.32509743,-6.20762788
8220DB000383,Strand Road (Gilford Road),383,53.32860453,-6.208937191
8220DB000384,Strand Road (Lea Road),384,53.33160723,-6.210177739
8220DB000385,Newgrove Avenue,385,53.33235102,-6.211227688
8220DB000387,Sandymount Road,387,53.33254487,-6.215769195
8220DB000388,Sandymount Road,388,53.33451784,-6.218479798
8220DB000389,Sandymount Road,389,53.33529839,-6.219588495
8220DB000390,Tritonville Road,390,53.33756771,-6.222287118
8220DB000391,Irishtown Road,391,53.34008227,-6.223954622
8220DB000392,Saint Patrick's Church,392,53.34174284,-6.227429958
8220DB000393,Cranfield Place,393,53.33687627,-6.222330895
8220DB000395,Ringsend Road,395,53.34196024,-6.235425806
8220DB000396,Pearse Street,396,53.34246403,-6.239715361
8220DB000397,Saint Andrew's Resource Centre,397,53.34277724,-6.242060406
8220DB000398,Pearse Street,398,53.34329582,-6.245538486
8220DB000399,Pearse Street,399,53.3438482,-6.248264308
8220DB000400,Shaw Street,400,53.34475927,-6.252777849
8220DB000403,Nassau St. (Opp. Frederick St),403,53.34271329,-6.256691284
8220DB000404,Nassau St. (Opp. Frederick St),404,53.34264624,-6.256408664
8220DB000405,South Frederick's Street,405,53.34247249,-6.25558973
8220DB000406,Northern Ireland Tourist Board,406,53.34257876,-6.256096026
8220DB000407,Custom House,407,53.34833423,-6.253848318
8220DB000408,Merrion Square North,408,53.34097078,-6.25001924
8220DB000409,Holles Street,409,53.34013607,-6.247650569
8220DB000410,Lower Mount Street,410,53.33881323,-6.243875382
8220DB000411,Lower Mount Street,411,53.3381169,-6.241756545
8220DB000412,Northumberland Road,412,53.33525529,-6.237264312
8220DB000413,Northumberland Road,413,53.33409264,-6.236441348
8220DB000414,Northumberland Road,414,53.33151902,-6.23441542
8220DB000415,Elgin Road,415,53.33033759,-6.232932744
8220DB000416,"Merrion Road, RDS",416,53.32863071,-6.229354937
8220DB000417,Merrion Road (Sydenham Road),417,53.32769038,-6.225955789
8220DB000418,British Embassy,418,53.3257106,-6.223380667
8220DB000419,Merrion Road,419,53.3239859,-6.220434874
8220DB000420,Merrion Road,420,53.32190159,-6.217489294
8220DB000421,Merrion Road (Ailesbury Road),421,53.31999597,-6.214476494
8220DB000422,Saint Vincent's Hospital,422,53.31806397,-6.21030928
8220DB000423,Herbert Avenue,423,53.31714828,-6.207390658
8220DB000424,Merrion Gates,424,53.31539415,-6.203711866
8220DB000476,Merrion Gates,476,53.31574254,-6.2047629
8220DB000477,Merrion Road (Estate Ave),477,53.31686305,-6.20695232
8220DB000478,Saint Vincent's Hospital,478,53.31810532,-6.211268201
8220DB000479,Merrion Shopping Centre,479,53.31913476,-6.213386661
8220DB000480,Merrion Road (Ailesbury Road),480,53.32084077,-6.216272578
8220DB000481,Merlyn Road,481,53.32233543,-6.218251815
8220DB000482,Merrion Road,482,53.32468354,-6.222012172
8220DB000483,Merrion Road,483,53.32592592,-6.223957223
8220DB000485,"Merrion Road, RDS",485,53.32826049,-6.228634599
8220DB000486,"Merrion Road, RDS",486,53.32831862,-6.228917451
8220DB000487,American Embassy,487,53.33080073,-6.233859519
8220DB000488,Lansdowne Park,488,53.33309833,-6.236061941
8220DB000489,Northumberland Road,489,53.33494178,-6.237337306
8220DB000490,Northumberland Road,490,53.33655632,-6.238937561
8220DB000491,Lower Mount Street,491,53.33780463,-6.241303865
8220DB000492,Lower Mount Street,492,53.33858446,-6.243599454
8220DB000493,Holles Street,493,53.33988913,-6.24736034
8220DB000494,Clare Street,494,53.3414174,-6.251667978
8220DB000495,Outside Train Station,495,53.34358212,-6.249732063
8220DB000496,Busáras,496,53.34946007,-6.252165
8220DB000497,Outside Connolly Station,497,53.35049913,-6.250695447
8220DB000499,Summerhill Parade,499,53.35749547,-6.2491018
8220DB000500,Ballybough Road (Foster Terrace),500,53.35902665,-6.246259493
8220DB000501,Ballybough Road (Clonliffe Road),501,53.36069626,-6.243666712
8220DB000509,Ballybough Road (Clonliffe Road),509,53.36060113,-6.243310024
8220DB000510,Ballybough Road (Foster Terrace),510,53.35916353,-6.245788112
8220DB000511,Summerhill Parade,511,53.35750639,-6.248620587
8220DB000512,Mountview Court,512,53.35593815,-6.252005064
8220DB000513,Summerhill Road,513,53.35525732,-6.25400096
8220DB000515,Amiens Street,515,53.35350792,-6.248093506
8220DB000516,Marino College of Further Education,516,53.35568326,-6.245660642
8220DB000518,North Strand Road,518,53.35893,-6.240914757
8220DB000519,Annesley Bridge,519,53.36030305,-6.239551026
8220DB000521,Fairview Park,521,53.36162829,-6.237993848
8220DB000522,Fairview Footbridge,522,53.36326987,-6.235341633
8220DB000523,Marino College Fairview,523,53.36428412,-6.231603229
8220DB000525,Howth Road,525,53.36494269,-6.22631664
8220DB000526,Copeland Grove,526,53.36682511,-6.221144186
8220DB000527,Howth Road (St.Lawrence Road),527,53.36799338,-6.212710045
8220DB000528,Castle Grove,528,53.36921917,-6.209938628
8220DB000529,Howth Road (Collins Avenue),529,53.37056753,-6.207552646
8220DB000530,Howth Road (Castle Ave),530,53.37122453,-6.20402333
8220DB000531,Howth Road (Furry Park Road),531,53.37321702,-6.201444579
8220DB000532,Howth Road (Brookwood Avenue),532,53.37571839,-6.193884051
8220DB000533,Howth Road (Ennafort Park Estate),533,53.37758282,-6.187026097
8220DB000534,Garda Retirement Home,534,53.3786551,-6.181884849
8220DB000535,Raheny Shopping Centre,535,53.3802315,-6.177398242
8220DB000536,Raheny Village,536,53.38042353,-6.173496704
8220DB000537,Avondale Park,537,53.37990097,-6.168137613
8220DB000538,Howth Road (Maywood Road),538,53.38012885,-6.164249547
8220DB000539,Howth Road (The Old Sheiling),539,53.38067343,-6.159340619
8220DB000540,Howth Road (Greendale Road),540,53.38133604,-6.155102921
8220DB000541,Howth Road (Blackbanks),541,53.38187248,-6.152013046
8220DB000542,Dublin Road (Kilbarrack Road),542,53.38365294,-6.14626834
8220DB000591,Dublin Road (Kilbarrack Road),591,53.38431398,-6.144270212
8220DB000592,Dublin Road (James Larkin Road),592,53.38275167,-6.148427162
8220DB000593,Howth Road (Blackbanks),593,53.38195778,-6.151137449
8220DB000594,Howth Road (Greendale Road),594,53.38116313,-6.15554634
8220DB000595,Berehaven Place,595,53.38059972,-6.159223541
8220DB000596,Howth Road (Maywood Road),596,53.38025261,-6.16177895
8220DB000597,Howth Road (Maywood Road),597,53.3800098,-6.164690599
8220DB000598,Howth Road (Avondale Park),598,53.37983511,-6.16911752
8220DB000599,Raheny Library,599,53.3803351,-6.173004428
8220DB000600,Howth Road,600,53.38024032,-6.176210328
8220DB000601,Howth Road (Cill Eanna Estate),601,53.37924099,-6.179635186
8220DB000602,Cill Eanna Estate (Opposite Ennafort Park),602,53.3781423,-6.183034049
8220DB000603,Ennafort Park Estate,603,53.37742707,-6.187423522
8220DB000604,All Saints Road,604,53.37635442,-6.190775839
8220DB000605,Howth Road (Brookwood Avenue),605,53.37565052,-6.193556254
8220DB000606,Saint Bridget's Church,606,53.37470875,-6.19784964
8220DB000607,Howth Road (Furry Park Road),607,53.37249963,-6.202151129
8220DB000608,Howth Road (Castle Ave),608,53.37112708,-6.204117603
8220DB000609,Castle Grove,609,53.36982834,-6.208605615
8220DB000610,Ashbrook Estate,610,53.36835309,-6.211522813
8220DB000611,Howth Road (Hollybrook Park),611,53.36674659,-6.218893369
8220DB000612,Howth Road,612,53.36586965,-6.223979008
8220DB000613,Howth Road,613,53.36461725,-6.226795981
8220DB000614,Pedestrian Footbridge,614,53.36360274,-6.233539768
8220DB000615,Fairview Park,615,53.36189721,-6.237336653
8220DB000616,Annesley Bridge,616,53.35982763,-6.2396157
8220DB000617,North Strand Road,617,53.35789585,-6.242099186
8220DB000618,Newcomen Bridge,618,53.35608365,-6.244772835
8220DB000619,Amiens Street,619,53.35399927,-6.247277149
8220DB000620,Talbot Street (opp Bank of Ireland),620,53.35125636,-6.251460589
8220DB000621,Talbot Street,621,53.3503918,-6.256257769
8220DB000624,Harmonstown Road (Ribh Road),624,53.38018508,-6.189110216
8220DB000625,Lein Park,625,53.38178734,-6.186306274
8220DB000626,Edenmore Green,626,53.38448508,-6.184026754
8220DB000627,Edenmore Grove,627,53.38540679,-6.181988008
8220DB000628,Edenmore Grove,628,53.38694556,-6.183876912
8220DB000629,Edenmore Park,629,53.38652751,-6.185939376
8220DB000630,Springdale Road,630,53.38724377,-6.189306727
8220DB000633,Tonlegee Drive,633,53.38964411,-6.189340155
8220DB000634,Tonlegee Avenue,634,53.39026599,-6.184126466
8220DB000635,Glenwood Road (Tonlegee Rd),635,53.38901333,-6.183909158
8220DB000636,Tonlegee Drive,636,53.38884922,-6.186712679
8220DB000637,Springdale Road,637,53.3877916,-6.189869829
8220DB000638,Springdale Road,638,53.38676187,-6.188349947
8220DB000639,Edenmore Park,639,53.38633279,-6.186729436
8220DB000640,Edenmore Grove,640,53.38669617,-6.183436498
8220DB000641,Edenmore Grove,641,53.38582593,-6.182361033
8220DB000642,Edenmore Green,642,53.38472241,-6.183084564
8220DB000643,Saint Joseph's Hospital,643,53.38356568,-6.183855421
8220DB000644,Lein Park,644,53.38235308,-6.185680912
8220DB000645,Harmonstown Road (Ribh Road),645,53.38016857,-6.188614858
8220DB000649,All Saints Road,649,53.37628321,-6.189636525
8220DB000650,All Saints Road (Sybill Hill Ave),650,53.37531257,-6.185499261
8220DB000651,All Saints Road (Near Tennis Courts Car Park),651,53.37547922,-6.179915888
8220DB000653,Main Street Raheny,653,53.37946282,-6.175326617
8220DB000654,Watermill Road,654,53.37920985,-6.177005959
8220DB000655,Watermill Drive,655,53.37773844,-6.175415381
8220DB000656,Watermill Drive,656,53.37646997,-6.177694171
8220DB000657,All Saints Park,657,53.37554494,-6.178921076
8220DB000658,All Saints Road (Waterfall Road),658,53.37497982,-6.183123599
8220DB000659,All Saints Road (Sybill Hill Ave),659,53.37525426,-6.185802347
8220DB000662,Collins Avenue Clontarf Golf Club,662,53.37387042,-6.212629275
8220DB000663,Saint Peter's School,663,53.3747723,-6.217040414
8220DB000664,Donnycarney Church,664,53.37465704,-6.219555247
8220DB000665,Malahide Road Clontarf Golf Club,665,53.37248339,-6.222065633
8220DB000666,Mount Temple School,666,53.37017069,-6.224296002
8220DB000667,Malahide Road (Griffith Avenue),667,53.36797244,-6.226972201
8220DB000668,East South B. Sub Station,668,53.36457409,-6.229337248
8220DB000669,Malahide Road (Crescent Place),669,53.3663078,-6.22866426
8220DB000670,Malahide Road (Griffith Avenue),670,53.36894691,-6.226015018
8220DB000671,Mount Temple School,671,53.37071662,-6.224138034
8220DB000672,junction Donnycarney Road,672,53.37346613,-6.2210628
8220DB000674,Collins Avenue East,674,53.37468585,-6.216067072
8220DB000675,Amiens Street Junction Upper Sheriff Str,675,53.35285814,-6.248525759
8220DB000709,Saint Bridget's Church,709,53.37503783,-6.197024111
8220DB000722,Outside Train Station,722,53.38111347,-6.175707002
8220DB000723,East South B. Sub Station,723,53.38415156,-6.175712398
8220DB000724,Grange Woodbine Community Centre,724,53.38694625,-6.174495371
8220DB000725,Raheny Road,725,53.38957191,-6.17045876
8220DB000726,Millbrook Avenue,726,53.39174812,-6.167598754
8220DB000727,Donaghies Estate,727,53.39369564,-6.166823384
8220DB000728,Church Of The Holy Trinity,728,53.39531598,-6.163475567
8220DB000729,Scoil Bride,729,53.39655823,-6.162429567
8220DB000730,Hole in the Wall Road,730,53.39816647,-6.16180384
8220DB000738,Grangemore Road,738,53.39760012,-6.161798177
8220DB000739,Donaghmede Shopping Centre,739,53.39514485,-6.163452862
8220DB000740,Donaghies Estate,740,53.39314082,-6.166982562
8220DB000741,Millbrook Avenue,741,53.39190749,-6.167441545
8220DB000742,De La Salle School,742,53.38982295,-6.169831537
8220DB000743,Woodbine Park,743,53.38802463,-6.172720213
8220DB000744,Raheny Road,744,53.38526148,-6.174823039
8220DB000745,Outside Train Station,745,53.38134334,-6.175456654
8220DB000746,Kildare Street (Natural History Museum),746,53.34012623,-6.255565364
8220DB000747,Archbishop Statue,747,53.33993036,-6.255693501
8220DB000748,Huguenot Cemetery,748,53.3385091,-6.255000649
8220DB000749,Lower Pembroke Street,749,53.33755826,-6.250834737
8220DB000750,Lower Baggot Street,750,53.33657086,-6.248472496
8220DB000751,Lower Baggot Street,751,53.33532033,-6.246556628
8220DB000752,Upper Baggot Street,752,53.33367143,-6.244447014
8220DB000753,Saint Martins House,753,53.33249742,-6.243459185
8220DB000754,Waterloo Road (Burlington Road),754,53.33079254,-6.244264953
8220DB000755,Waterloo Road (Wellington Lane),755,53.32881884,-6.245126732
8220DB000756,Bloomfield Avenue,756,53.32639034,-6.242569108
8220DB000757,Morehampton Road,757,53.32407213,-6.239571877
8220DB000758,Morehampton Road,758,53.32267774,-6.237662748
8220DB000759,Old Wesley Rugby Football Club,759,53.32033965,-6.233330886
8220DB000760,Church of the Sacred Heart,760,53.31832098,-6.230547327
8220DB000761,R.T.E. Television Studios,761,53.3160912,-6.227472586
8220DB000762,RTE,762,53.31451684,-6.224355944
8220DB000763,Belfield Court,763,53.31232082,-6.221145316
8220DB000765,University College Dublin,765,53.30522763,-6.216833489
8220DB000766,Campus,766,53.3053942179411,-6.2183571283981
8220DB000767,University College Dublin,767,53.30535048,-6.216633296
8220DB000768,Slip Road Stillorgan Dual Carriageway,768,53.30946468,-6.218877944
8220DB000769,Belfield Court,769,53.31189189,-6.221313232
8220DB000770,N11 Opp. R.T.E.,770,53.31467301,-6.22579032
8220DB000771,Teresian School,771,53.31587985,-6.227766522
8220DB000772,Donnybrook Bus Garage,772,53.31849424,-6.231320692
8220DB000773,Donnybrook Road,773,53.31991613,-6.233258318
8220DB000774,Donnybrook Garda Station,774,53.32160292,-6.235485365
8220DB000775,Morehampton Road,775,53.32348051,-6.239070814
8220DB000776,Morehampton Road,776,53.32548933,-6.24181047
8220DB000777,Morehampton Road,777,53.32694565,-6.243657259
8220DB000779,Waterloo Road (Wellington Lane),779,53.32867953,-6.245432727
8220DB000780,Waterloo Road (Burlington Road),780,53.33101954,-6.244420791
8220DB000781,Saint Martins House,781,53.33263614,-6.243723758
8220DB000782,Upper Baggot Street,782,53.33358359,-6.244585761
8220DB000783,Lower Baggot Street,783,53.33530832,-6.246962557
8220DB000784,Lower Baggot Street,784,53.33641115,-6.248614189
8220DB000785,Lower Pembroke Street,785,53.33709516,-6.251739679
8220DB000786,Lower Leeson Street,786,53.33519973,-6.256111808
8220DB000790,St Stephens Green North,790,53.33909587,-6.257634778
8220DB000791,Stephens Court,791,53.33899815,-6.257098135
8220DB000792,Dawson Street (Independent College),792,53.3420867,-6.258098549
8220DB000793,Dawson Street (Independent College),793,53.34235487,-6.257997506
8220DB000794,Suffolk Street,794,53.34358484,-6.260365423
8220DB000795,Eccles Street,795,53.35873106,-6.269724642
8220DB000796,"Mater Hospital, Berkeley Road",796,53.35998119,-6.269779162
8220DB000797,Post Office,797,53.36070014,-6.274738335
8220DB000798,North Circular Road (Rathdown Road),798,53.35942187,-6.279582809
8220DB000799,North Circular Road (Charleville Road),799,53.35881503,-6.281755735
8220DB000800,Grangegorman Hospital,800,53.35805509,-6.284535713
8220DB000801,North Circular Road,801,53.35739073,-6.2877174
8220DB000802,Drumalee Estate,802,53.35649789,-6.291268693
8220DB000803,North Circular Road (Oxmanstown Road),803,53.35473912,-6.29398308
8220DB000804,North Circular Road (O'Devaney Gardens),804,53.35369332,-6.29564728
8220DB000807,Phoenix Park Gate,807,53.35170024,-6.297694658
8220DB000808,North Circular Road (O'Devaney Gardens),808,53.35399446,-6.295334812
8220DB000809,North Circular Road (Oxmanstown Road),809,53.35525154,-6.293361691
8220DB000810,North Circular Road,810,53.35709964,-6.289982626
8220DB000811,North Circular Road,811,53.35766295,-6.287270792
8220DB000812,Grangegorman Hospital,812,53.35825716,-6.284212089
8220DB000813,North Circular Road (Charleville Road),813,53.35919005,-6.280959374
8220DB000814,North Circular Road (Cabra Road),814,53.36053082,-6.276082396
8220DB000817,"Mater Hospital, Berkeley Road",817,53.35963702,-6.269597787
8220DB000818,O'Connell Avenue,818,53.35845483,-6.269270083
8220DB000819,Blessington Court,819,53.35629482,-6.265977336
8220DB000820,Carnlough Road (Cabra Road),820,53.3619586,-6.293499322
8220DB000821,Drumcliffe Estate,821,53.36454292,-6.293831795
8220DB000822,Carnlough Road,822,53.36712068,-6.291820321
8220DB000823,Carnlough Road (Bannow Road),823,53.36822596,-6.291174991
8220DB000824,Carnlough Road (Kilkieran Road),824,53.36973865,-6.293248435
8220DB000825,Carnlough Road,825,53.37042024,-6.296918164
8220DB000826,Near Train Station,826,53.37120866,-6.301154845
8220DB000827,Ventry Park Estate,827,53.37129695,-6.303570947
8220DB000828,Near Train Station,828,53.37103563,-6.299734016
8220DB000829,Carnlough Road,829,53.3703877,-6.295897534
8220DB000830,Carnlough Road (Bannow Road),830,53.36961517,-6.29215632
8220DB000831,Carnlough Road,831,53.36765277,-6.291318154
8220DB000832,Drumcliffe Estate,832,53.36366582,-6.294092234
8220DB000833,Carnlough Road (Cabra Road),833,53.36177593,-6.293296267
8220DB000834,Binns Bridge,834,53.36195745,-6.26042837
8220DB000835,Lower Saint Brigid's Road,835,53.36259998,-6.263196974
8220DB000836,Claude Road,836,53.36332852,-6.266322789
8220DB000837,David Road,837,53.36376986,-6.268243236
8220DB000838,Whitworth Road (Prospect Rd),838,53.36431041,-6.270189755
8220DB000839,David Road,839,53.36373572,-6.26774876
8220DB000840,Whitworth Road,840,53.36318923,-6.265396839
8220DB000841,Whitworth Road,841,53.36211278,-6.260602348
8220DB000842,Saint Stephen's Green,842,53.33764283,-6.255997104
8220DB000843,Saint Stephen's Green,843,53.33705633,-6.256456522
8220DB000844,Loreto Convent,844,53.33724299,-6.256313756
8220DB000845,Leeson Street,845,53.33545323,-6.256236611
8220DB000846,Lower Leeson Street,846,53.33345329,-6.254080895
8220DB000847,Upper Leeson Street (Mespil Road),847,53.33157494,-6.252250733
8220DB000848,Sussex Road,848,53.3297659,-6.249021573
8220DB000849,Appian Way,849,53.3277999,-6.247961067
8220DB000850,Chelmsford Road,850,53.32612035,-6.251107538
8220DB000851,Chelmsford Road,851,53.32542174,-6.252502265
8220DB000852,Ranelagh Village,852,53.32442006,-6.252843449
8220DB000853,Sandford Road,853,53.32259255,-6.248354574
8220DB000854,Sandford Road (Larch Grove),854,53.32163123,-6.246547559
8220DB000855,Sandford Road (Belmont Road),855,53.31929309,-6.242800734
8220DB000856,Clonskeagh Road (Eglington Road),856,53.31764569,-6.240797047
8220DB000857,Clonskeagh Hospital,857,53.31655818,-6.2383652
8220DB000858,Beech Hill Estate,858,53.31408527,-6.238286943
8220DB000859,Whitethorn Road,859,53.31183193,-6.23846979
8220DB000860,Clonskeagh Road,860,53.30818663,-6.236909126
8220DB000861,Bird Avenue,861,53.30511698,-6.235985225
8220DB000862,Islamic Centre,862,53.30360775,-6.234216828
8220DB000863,Carmelites Monastery,863,53.30266584,-6.231914962
8220DB000864,Harlech Grove,864,53.30207012,-6.228113426
8220DB000865,Roebuck Road,865,53.30104658,-6.225770145
8220DB000866,Roebuck Hall Student Residents,866,53.3000397,-6.222135956
8220DB000869,Roebuck Road,869,53.30003519,-6.222436219
8220DB000870,Roebuck Castle Estate,870,53.30113166,-6.226051697
8220DB000873,Roebuck Road,873,53.30209158,-6.228952791
8220DB000874,Carmelites Monastery,874,53.30263226,-6.232681589
8220DB000875,Roebuck Road (White Oak Est),875,53.30447277,-6.235576628
8220DB000876,Bird Avenue,876,53.30521401,-6.237076633
8220DB000877,University College of Dublin UCD,877,53.30820188,-6.230050459
8220DB000878,Clonskeagh Road,878,53.30815314,-6.23707558
8220DB000879,Annsbrook Estate,879,53.30955832,-6.237888088
8220DB000880,Whitethorn Road,880,53.31231356,-6.23882516
8220DB000881,Beech Hill Estate,881,53.31455436,-6.238402702
8220DB000882,Clonskeagh Hospital,882,53.3167224,-6.239138936
8220DB000883,Clonskea Road (Milltown Road),883,53.31768494,-6.241020582
8220DB000884,Milltown Park,884,53.32001606,-6.244287115
8220DB000885,Sandford Road (Larch Grove),885,53.32124954,-6.246262985
8220DB000886,Sandford Road,886,53.32263289,-6.248653156
8220DB000887,Ranelagh,887,53.32418058,-6.252447905
8220DB000893,Cowper Road,893,53.31606331,-6.259143545
8220DB000894,Cowper Road,894,53.31518372,-6.264162345
8220DB000895,Upper Rathmines Road,895,53.31393183,-6.263988019
8220DB000896,Palmerston Park,896,53.31336273,-6.261324613
8220DB000897,Palmerston Lane,897,53.3142902,-6.258360212
8220DB000903,Chelmsford Road,903,53.32554662,-6.25243711
8220DB000904,Appian Way,904,53.32740824,-6.248832879
8220DB000906,Leeson Street Upper,906,53.32881931,-6.247603999
8220DB000907,Saint John's Ambulance Head Quarters,907,53.3297279,-6.250719731
8220DB000908,Upper Leeson Street (Mespil Road),908,53.33116305,-6.252357661
8220DB000909,Lower Leeson Street,909,53.33316541,-6.254062624
8220DB000956,Naomh Barrog GAA Club,956,53.38983157,-6.15288612
8220DB000957,Railway Bridge,957,53.39032092,-6.157796646
8220DB000958,Saint Donagh's Estate,958,53.39094325,-6.163769102
8220DB000959,"Kilbarrack Road, Grange Road",959,53.39101041,-6.166968866
8220DB000960,Tonlegee Road,960,53.39117604,-6.171908588
8220DB000961,Saint Monica's Youth Centre,961,53.39109437,-6.176558197
8220DB000962,Tonlegee Road,962,53.39083154,-6.182899522
8220DB000963,Tonlegee Road #1,963,53.39054711,-6.186655536
8220DB000964,Smurfits,964,53.39010149,-6.192237638
8220DB000965,Tonlegee Road,965,53.38888986,-6.196513856
8220DB000966,Saint Brendan's Terrace,966,53.39125156,-6.202924561
8220DB000967,Woodville,967,53.39229184,-6.206354116
8220DB000968,Woodville Park,968,53.39379533,-6.21071171
8220DB000969,Northside Shopping Centre,969,53.39567325,-6.215474986
8220DB000972,Woodlawn Estate,972,53.39699582,-6.234908771
8220DB000979,Finglas Credit Union,979,53.38995359,-6.297085609
8220DB000980,Mellowes Road,980,53.38987707,-6.303072684
8220DB000981,Mellowes Road,981,53.38982756,-6.306547784
8220DB000983,Mellowes Road,983,53.39014146,-6.310940665
8220DB000984,Mellowes Road,984,53.38991117,-6.306739923
8220DB000985,Mellowes Crescent,985,53.38997844,-6.303880555
8220DB000987,Finglas Village (Seamus Ennis Road),987,53.39028195,-6.299312771
8220DB000988,Seamus Ennis Rd (Ballygall Rd W),988,53.38989772,-6.295689563
8220DB000993,Auldan Grange Estate,993,53.39769339,-6.229210519
8220DB000997,Oscar Traynor Road,997,53.3941403,-6.211539306
8220DB000998,Armstrong Walk,998,53.39357454,-6.209773659
8220DB000999,Jennings Funeral Home,999,53.39224105,-6.205965308
8220DB001000,Northside Shopping Centre,1000,53.39097387,-6.201793537
8220DB001001,Coolock Village,1001,53.39008089,-6.199199965
8220DB001002,Tonlegee Road,1002,53.38921928,-6.195116686
8220DB001003,Tonlegee Road #3,1003,53.39032489,-6.190965177
8220DB001004,Tonlegee Road #1,1004,53.39071854,-6.186106959
8220DB001005,Tonlegee Road,1005,53.39099655,-6.181930195
8220DB001006,Saint Monica's Youth Centre,1006,53.39117013,-6.176810569
8220DB001007,Tonlegee Road #4,1007,53.39122003,-6.172432963
8220DB001008,"Kilbarrack Road, Grange Road",1008,53.39112648,-6.16691877
8220DB001009,Saint Donagh's Estate,1009,53.39108884,-6.164469525
8220DB001010,Railway Bridge,1010,53.39058975,-6.158326324
8220DB001012,Kilbarrack Parade,1012,53.39029399,-6.152565381
8220DB001013,Saint Stephen's Green House,1013,53.33548129,-6.257541873
8220DB001014,Earlsfort Terrace,1014,53.33567606,-6.257338722
8220DB001015,Earlsfort Terrace,1015,53.33272992,-6.259936342
8220DB001016,Richmond Street Sth (Lennox Street),1016,53.33113237,-6.264415674
8220DB001017,Grove Park,1017,53.32936933,-6.264322097
8220DB001018,Rathmines Road Lower (Richmond Hill),1018,53.32756728,-6.26463547
8220DB001019,Military Road,1019,53.32646479,-6.264845361
8220DB001020,Rathmines Town Centre,1020,53.3250755,-6.265111916
8220DB001021,Rathmines Avenue,1021,53.32137105,-6.265637488
8220DB001022,Upper Rathmines Road #1,1022,53.31951254,-6.264542037
8220DB001023,Maxwell Road,1023,53.31704597,-6.264897288
8220DB001024,Frankfort Avenue,1024,53.31585191,-6.264990755
8220DB001025,Dartry Road (Sunbury Gardens),1025,53.31159066,-6.262462189
8220DB001026,Dartry Road,1026,53.30910533,-6.260297086
8220DB001027,South Hill,1027,53.30872852,-6.257881311
8220DB001028,Lower Churchtown Road,1028,53.30848991,-6.25570005
8220DB001038,Braemore Road (Landscape Road),1038,53.30181257,-6.265620029
8220DB001062,Lower Churchtown Road,1062,53.30825941,-6.255304268
8220DB001063,South Hill,1063,53.30857164,-6.258833123
8220DB001064,Dartry Road,1064,53.3094287,-6.260899224
8220DB001065,Dartry Road (Sunbury Gardens),1065,53.31182881,-6.262767681
8220DB001066,Upper Rathmines Road,1066,53.31375326,-6.264070309
8220DB001067,Upper Rathmines Road,1067,53.31704157,-6.26521267
8220DB001068,Upper Rathmines Road #1,1068,53.32055823,-6.265370235
8220DB001069,Lower Rathmines Road,1069,53.32328505,-6.265604892
8220DB001070,Lower Rathmines Road,1070,53.32497033,-6.265296333
8220DB001071,Rathmines Road Lower (Richmond Hill),1071,53.32729186,-6.264856835
8220DB001072,Richmond Street Sth (Lennox Street),1072,53.33103574,-6.264569744
8220DB001074,Charlotte Way,1074,53.33377662,-6.263917904
8220DB001076,Lower Rathmines Road,1076,53.32315689,-6.265444961
8220DB001077,Rathmines Garda Station,1077,53.32155524,-6.266560716
8220DB001078,Rathgar Road,1078,53.31946601,-6.268761883
8220DB001079,Spar Rathgar Road,1079,53.31664564,-6.270752237
8220DB001080,Rathgar Road (Garville),1080,53.31500866,-6.271914072
8220DB001081,Rathgar Road (Highfield Road),1081,53.31266875,-6.273569445
8220DB001082,Terenure Road East,1082,53.31167573,-6.275755633
8220DB001083,Brighton Road,1083,53.31114534,-6.278238254
8220DB001085,Terenure Road East,1085,53.31009949,-6.282377314
8220DB001086,Terenure Road West,1086,53.30966059,-6.285606443
8220DB001087,Garda Station,1087,53.3103349,-6.289376261
8220DB001088,Terenure Road West,1088,53.31096461,-6.293177991
8220DB001089,Lavarna Grove,1089,53.31164639,-6.297488019
8220DB001090,Kimmage Road West (Fortfield Road),1090,53.31222131,-6.3006168
8220DB001091,Whitehall Road (Kimmage Road West),1091,53.3124404,-6.305275578
8220DB001092,Whitehall Road,1092,53.31074341,-6.309199699
8220DB001093,Whitehall Road,1093,53.30996914,-6.311646442
8220DB001113,Glendale Park,1113,53.30893373,-6.315333937
8220DB001114,Manor Grove,1114,53.31029047,-6.310853386
8220DB001115,Whitehall Gardens,1115,53.31146518,-6.307490318
8220DB001117,Lavarna Grove,1117,53.31186456,-6.298289757
8220DB001118,Terenure Road West,1118,53.31133213,-6.294994256
8220DB001119,Terenure Road West,1119,53.31092649,-6.292399123
8220DB001120,Garda Station,1120,53.31017116,-6.287987138
8220DB001121,Terenure Cross Library,1121,53.30902876,-6.285421666
8220DB001122,Templeogue Road,1122,53.30725449,-6.288298927
8220DB001123,Lakeland's Park,1123,53.30557681,-6.291022033
8220DB001124,Templeogue Road,1124,53.30413624,-6.293360341
8220DB001159,Bushy Park,1159,53.30241803,-6.296399753
8220DB001160,Terenure College,1160,53.30437642,-6.293185705
8220DB001161,Templeogue Road,1161,53.30604539,-6.290478116
8220DB001162,Rathdown Park,1162,53.30774957,-6.287723885
8220DB001163,Templeogue Road #1,1163,53.30892614,-6.285785942
8220DB001164,Terenure Road East,1164,53.31040287,-6.28159976
8220DB001165,Terenure Road East,1165,53.31168505,-6.276400592
8220DB001166,Rathgar Road (Garville),1166,53.31390804,-6.272874059
8220DB001167,Rathgar Road (Garville),1167,53.31595433,-6.271425586
8220DB001168,Rathgar Road,1168,53.31793837,-6.27002452
8220DB001169,Rathmines Park,1169,53.3200291,-6.268543949
8220DB001170,Rathgar Road (Lower Rathmines Road),1170,53.32168056,-6.266525613
8220DB001171,Lower Gardiner Street,1171,53.35031747,-6.254247937
8220DB001172,Lower Gardiner Street,1172,53.35174313,-6.255241204
8220DB001173,Lower Gardiner Street,1173,53.35376823,-6.256660743
8220DB001174,Mountjoy Square Park,1174,53.35629657,-6.258690876
8220DB001175,Upper Gardiner Street,1175,53.35858846,-6.261151554
8220DB001176,Sports Grounds,1176,53.39935482,-6.221862774
8220DB001177,Sports Grounds (Opposite),1177,53.40088816,-6.225242827
8220DB001178,Business Park,1178,53.40344443,-6.218849618
8220DB001179,"Clonsaugh Und.Est, Business Park",1179,53.39993115,-6.218921183
8220DB001181,Lanesborough Estate,1181,53.40569725,-6.300638148
8220DB001182,Charlestown Estate,1182,53.40561127,-6.300912309
8220DB001184,Talbot Street (opp Bank of Ireland),1184,53.35085072,-6.253835583
8220DB001185,Collins Avenue (Oak Road),1185,53.37636701,-6.221513046
8220DB001186,Collins Avenue,1186,53.37764288,-6.226314916
8220DB001187,Saint Vincent's Court,1187,53.37860729,-6.231340419
8220DB001188,Grace Park Heights,1188,53.38001827,-6.23558106
8220DB001189,Colmcille GAA Club,1189,53.38071871,-6.237972272
8220DB001190,Collinswood Estate,1190,53.3801559,-6.235770785
8220DB001191,Grace Park Heights,1191,53.37921697,-6.233058818
8220DB001192,Collins Avenue (Celtic Park Road),1192,53.37863297,-6.230647909
8220DB001193,Grace Park Meadows,1193,53.37799198,-6.227427747
8220DB001194,Collins Avenue,1194,53.37752599,-6.22510226
8220DB001195,Collins Avenue (Oak Road),1195,53.37638971,-6.221226518
8220DB001196,Malahide Road (Killester Avenue),1196,53.37802442,-6.214529604
8220DB001197,Malahide Road (Kilmore Road),1197,53.37923205,-6.211743311
8220DB001198,Artane Roundabout,1198,53.38251197,-6.206900567
8220DB001199,Mask Avenue,1199,53.38498424,-6.20275259
8220DB001200,Chanel College,1200,53.38697208,-6.20106016
8220DB001201,Greencastle Road,1201,53.39087827,-6.196053887
8220DB001202,junction Greencastle Road,1202,53.39250116,-6.193414024
8220DB001203,Priorswood Roundabout,1203,53.39671714,-6.187521024
8220DB001205,Malahide Road (N32),1205,53.40149339,-6.181843582
8220DB001218,Belcamp Lane,1218,53.39967804,-6.18422195
8220DB001219,Malahide Road (Daneli Road),1219,53.38125721,-6.208336278
8220DB001220,Malahide Road (Killester Avenue),1220,53.37876318,-6.212243968
8220DB001221,Maypark,1221,53.3768439,-6.216127171
8220DB001222,Ardlea Road (near Roundabout Pub),1222,53.38406616,-6.206850282
8220DB001223,Ardlea Road (near Roundabout Pub),1223,53.38525039,-6.208499328
8220DB001224,Ardlea Road (near A1 pub),1224,53.38664393,-6.210921466
8220DB001225,Ardlea Road (near A1 pub),1225,53.38685915,-6.213889244
8220DB001226,Kilmore Road (Ardmore Drive),1226,53.38810459,-6.214829395
8220DB001227,Kilmore Road (Castlekevin Road),1227,53.39113709,-6.21506334
8220DB001228,Kilbarron Road (Cromcastle Drive),1228,53.3922983,-6.217585947
8220DB001229,Kilbarron Road (Dundaniel Road),1229,53.39433967,-6.225500306
8220DB001231,Castletimon Road (Castletimon Avenue),1231,53.39547979,-6.227828772
8220DB001232,Castletimon Road,1232,53.39528526,-6.230468382
8220DB001233,Ballyshannon Road,1233,53.39435278,-6.231228846
8220DB001234,Castletimon Road,1234,53.39468765,-6.232598369
8220DB001235,Dundaniel Road (Kilbarron Road),1235,53.39472748,-6.22558943
8220DB001237,Kilbarron Road (Cromcastle Drive),1237,53.39265285,-6.219059733
8220DB001238,Kilmore Road (Tranquility Grove),1238,53.39174587,-6.214902538
8220DB001239,Kilmore Place Apartments,1239,53.38949217,-6.215056995
8220DB001240,Ardlea Road (near A1 pub),1240,53.38680945,-6.211170109
8220DB001241,Ardlea Road (near Roundabout Pub),1241,53.3858792,-6.209074283
8220DB001242,Ardlea Road (near Roundabout Pub),1242,53.38449195,-6.207072923
8220DB001243,Greencastle Road,1243,53.39489133,-6.19991412
8220DB001244,Kilbarron Road (Cromcastle Green),1244,53.39290702,-6.220432476
8220DB001245,Glin Road,1245,53.39798829,-6.206219787
8220DB001246,Saint Luke's Church,1246,53.39349301,-6.222964261
8220DB001247,Greencastle Road,1247,53.39508087,-6.199966269
8220DB001248,Coolock Industrial Estate,1248,53.39298911,-6.197152496
8220DB001249,Coolock Drive,1249,53.39518096,-6.201240217
8220DB001250,Civic Centre Northside,1250,53.3937298,-6.207541696
8220DB001251,Saint Luke's Church,1251,53.39344813,-6.222364665
8220DB001252,Kilmore Road (Tranquility Grove),1252,53.39363781,-6.214597801
8220DB001253,Kilmore Road (Tranquility Grove),1253,53.39390908,-6.21470674
8220DB001254,Bunratty Road,1254,53.39510815,-6.211348345
8220DB001255,Bunratty Road,1255,53.39435328,-6.208959046
8220DB001256,Northside Civic Centre,1256,53.39362174,-6.20692973
8220DB001258,Priorswood Industrial Park,1258,53.39819618,-6.190811726
8220DB001259,Marigold Estate,1259,53.3985812,-6.194870836
8220DB001260,Priorswood Road,1260,53.40017758,-6.198803654
8220DB001262,Fairfield Estate,1262,53.40199502,-6.204893164
8220DB001265,Buttercup Estate,1265,53.39821232,-6.190690734
8220DB001266,Saint Francis Church,1266,53.40204643,-6.204725563
8220DB001267,Ferrycarrig Park,1267,53.40087392,-6.200278171
8220DB001268,Belcamp Avenue,1268,53.39988506,-6.197883593
8220DB001269,Marigold Estate,1269,53.39842873,-6.193704288
8220DB001270,Darndale Roundabout,1270,53.39648734,-6.187184921
8220DB001272,Newton Cottages,1272,53.39287272,-6.191834486
8220DB001273,Greencastle Road,1273,53.39107306,-6.195263783
8220DB001274,Saint Brendan's Church,1274,53.38892961,-6.197955548
8220DB001275,Mask Avenue,1275,53.3855761,-6.202066163
8220DB001276,Saint Brendan's Avenue,1276,53.38425039,-6.202963906
8220DB001277,Artane Roundabout,1277,53.38263587,-6.206173782
8220DB001278,College Green,1278,53.34423618,-6.261270097
8220DB001279,College Green,1279,53.34426027,-6.261689656
8220DB001280,McKelvey Avenue,1280,53.40018709,-6.30312862
8220DB001282,South Great George's Street,1282,53.34234158,-6.264486073
8220DB001283,South Great George's Street,1283,53.34180872,-6.26492823
8220DB001284,Redmond's Hill,1284,53.33811017,-6.265859278
8220DB001285,Grantham Street,1285,53.33440579,-6.265153674
8220DB001286,Harrington Street Garda Club,1286,53.33250863,-6.26572617
8220DB001287,Harrington Street,1287,53.33247837,-6.266117791
8220DB001288,South Circular Road (Victoria St),1288,53.33235036,-6.26968155
8220DB001289,South Circular Road (Longwood Ave),1289,53.33212125,-6.27309922
8220DB001290,Upper Clanbrassil Street,1290,53.33073083,-6.275152313
8220DB001291,Le Vere Terrace,1291,53.32844639,-6.276295436
8220DB001292,Saint Clare's Convent,1292,53.32563272,-6.278135327
8220DB001293,Harold's Cross Race Track,1293,53.32281523,-6.279089434
8220DB001294,Harold's Cross Road,1294,53.32059981,-6.278788304
8220DB001295,Harold's Cross Road (Rathgar Avenue),1295,53.31787831,-6.279543259
8220DB001296,Mount Tallant Avenue,1296,53.31555311,-6.281602982
8220DB001297,Terenure Road North,1297,53.31240961,-6.282389614
8220DB001298,Elm Park Terrace,1298,53.31072026,-6.283042731
8220DB001299,Terenure Road,1299,53.30839549,-6.283886358
8220DB001300,Rathfarnham Road,1300,53.30620508,-6.283449009
8220DB001335,War Memorial Hall,1335,53.30741721,-6.283985622
8220DB001336,Terenure Road,1336,53.30885685,-6.284092954
8220DB001337,Terenure Road North,1337,53.31110696,-6.283057226
8220DB001338,Whitton Road,1338,53.31243017,-6.282568885
8220DB001339,Mount Tallant Avenue,1339,53.31502365,-6.282284647
8220DB001340,Mount Tallant Avenue,1340,53.31641624,-6.280997947
8220DB001341,Harold's Cross Road (Rathgar Avenue),1341,53.31921839,-6.278978996
8220DB001342,Harold's Cross Road,1342,53.32126357,-6.279317
8220DB001343,Shamrock Villas Estate,1343,53.32265744,-6.279365994
8220DB001344,Harold's Cross Road (Greenmount Lane),1344,53.32723329,-6.277560417
8220DB001345,Le Vere Terrace,1345,53.32878688,-6.276221654
8220DB001347,Upper Clanbrassil Street,1347,53.33118279,-6.275329267
8220DB001348,South Circular Road (Longwood Ave),1348,53.33224932,-6.273874827
8220DB001349,South Circular Road (Carlisle St),1349,53.33238551,-6.270866317
8220DB001350,Saint Kevin's Church,1350,53.33256109,-6.267480812
8220DB001352,Upper Camden Street,1352,53.33444521,-6.265392327
8220DB001353,Camden Street,1353,53.33600953,-6.265418938
8220DB001354,Aungier Street,1354,53.33904787,-6.266061506
8220DB001355,Whitefriars Street Church,1355,53.34009624,-6.265838755
8220DB001357,Exchequer Street,1357,53.34258542,-6.264566281
8220DB001358,Central Bank,1358,53.34430428,-6.262859369
8220DB001359,College Green,1359,53.34439919,-6.26135358
8220DB001360,South Circular Road (Clanbrassil St),1360,53.33198339,-6.276618278
8220DB001362,National Stadium,1362,53.33120396,-6.279907874
8220DB001363,South Circular Road (Clogher Road),1363,53.33183781,-6.28522765
8220DB001364,South Circular Road (Dolphin Ave),1364,53.33231828,-6.288016181
8220DB001365,Dolphin's Barn Church,1365,53.33290132,-6.290440306
8220DB001366,Church Avenue South,1366,53.3351503,-6.294344605
8220DB001367,Rialto Parish Centre,1367,53.33563909,-6.296472408
8220DB001369,South Circular Road (Mountshannon Road),1369,53.338867,-6.302230512
8220DB001370,Hybreasal House,1370,53.33918837,-6.305236237
8220DB001371,Suir Road (S Circular Rd),1371,53.33887595,-6.307921698
8220DB001372,Goldenbridge Avenue,1372,53.33810348,-6.309859438
8220DB001373,Goldenbridge Avenue,1373,53.33777455,-6.312019857
8220DB001374,Southern Cross Avenue,1374,53.3392175,-6.312999062
8220DB001375,Bulfin Road,1375,53.33958205,-6.312083622
8220DB001376,Bulfin Road,1376,53.33949016,-6.308768392
8220DB001377,The Paddocks,1377,53.33918112,-6.304725934
8220DB001378,South Circular Road (Mountshannon Road),1378,53.33883664,-6.301360717
8220DB001379,Rialto Bridge,1379,53.33733949,-6.299107645
8220DB001380,South Circular Road,1380,53.33564079,-6.295961792
8220DB001381,South Circular Road (Haroldville Avenue),1381,53.33510557,-6.293730736
8220DB001382,Dolphin's Barn Church,1382,53.33314687,-6.2906407
8220DB001383,South Circular Road (Dolphin Ave),1383,53.33226166,-6.28657701
8220DB001384,South Circular Road (Clogher Road),1384,53.33132968,-6.282395249
8220DB001385,South Circular Road (Greenville Tce),1385,53.33173795,-6.278294817
8220DB001386,Clogher Road (Parnell Road),1386,53.32954342,-6.284433854
8220DB001387,Clogher Road (Aughavanagh Road),1387,53.32804055,-6.286806239
8220DB001388,Goldstone Court,1388,53.32676407,-6.291181143
8220DB001389,Saint Bernadette's Church,1389,53.32608801,-6.295441771
8220DB001391,Bangor Circle,1391,53.32281292,-6.298349478
8220DB001392,Clonmacnoise Grove,1392,53.3224908,-6.301604783
8220DB001394,Clonmacnoise Road (Kildare Road),1394,53.32373386,-6.296751585
8220DB001395,Citizen Advice Centre,1395,53.32473374,-6.296276399
8220DB001396,Pearse Memorial Park,1396,53.32489107,-6.314945487
8220DB001397,Pearse Memorial Park,1397,53.32509119,-6.313841696
8220DB001398,Kildare Road (Windmill Road),1398,53.32529218,-6.310260802
8220DB001399,Kildare Road (Clonard Road),1399,53.32513339,-6.305403051
8220DB001400,Bangor Circle,1400,53.32362482,-6.29981836
8220DB001401,Clogher Road,1401,53.32538762,-6.298637338
8220DB001402,Saint Bernadette's Church,1402,53.32597873,-6.295971574
8220DB001403,Goldstone Court,1403,53.32714487,-6.289529488
8220DB001404,Clogher Road (Aughavanagh Road),1404,53.32819154,-6.286680081
8220DB001405,Clogher Road (Parnell Road),1405,53.32981248,-6.284393029
8220DB001406,Dolphin's Barn,1406,53.33315293,-6.291691527
8220DB001407,Crumlin Road,1407,53.33150407,-6.294550153
8220DB001409,Crumlin Road,1409,53.33037701,-6.297447832
8220DB001410,Keeper Road (Sundrive Road),1410,53.33141671,-6.299763725
8220DB001411,Keeper Road (Brickfield Road),1411,53.33205081,-6.303266998
8220DB001412,Brickfields Park,1412,53.33268123,-6.305884629
8220DB001413,Mourne Road (Brickfields Park),1413,53.33344118,-6.308767487
8220DB001414,Mourne Road,1414,53.33334739,-6.312299794
8220DB001415,Mourne Road,1415,53.33244304,-6.316359514
8220DB001417,Our Lady Of Mercy School,1417,53.33102281,-6.31953846
8220DB001418,Mourne Road (Cooley Road),1418,53.33002035,-6.323031111
8220DB001419,Errigal Road (Brandon Road),1419,53.32770832,-6.322881585
8220DB001421,Drimnagh Road (Our Lady's Hospital for Sick Children),1421,53.32494157,-6.320438012
8220DB001423,Drimnagh Road (Our Lady's Hospital for Sick Children),1423,53.32499907,-6.319414914
8220DB001424,Crumlin Road (Cooley Road),1424,53.32565311,-6.316716967
8220DB001425,Cooley Road (Our Lady's Hospital for Sick Children),1425,53.32705576,-6.318027934
8220DB001426,Cooley Road,1426,53.32928323,-6.322384402
8220DB001427,Mourne Road (Cooley Road),1427,53.33026175,-6.32230096
8220DB001428,Our Lady Of Mercy School,1428,53.33134947,-6.319120225
8220DB001429,Mourne Road,1429,53.33259278,-6.316143406
8220DB001430,Mourne Road,1430,53.33357358,-6.311134679
8220DB001432,Mourne Road (Brickfields Park),1432,53.33350751,-6.308374463
8220DB001433,Brickfields Park,1433,53.33257194,-6.305783855
8220DB001434,Keeper Road (Brickfield Road),1434,53.33199223,-6.302308373
8220DB001435,Keeper Road (Sundrive Road),1435,53.33138783,-6.298999126
8220DB001436,Crumlin Road,1436,53.33087576,-6.296497072
8220DB001438,Saint Thomas Road,1438,53.33638298,-6.279414136
8220DB001439,Donore Credit Union,1439,53.3340582,-6.282751092
8220DB001440,Donore Avenue,1440,53.33198984,-6.283299646
8220DB001441,Kildare Road (Bangor Road),1441,53.3248657,-6.303011686
8220DB001442,Kildare Road (Clonard Road),1442,53.32515768,-6.307113506
8220DB001443,Essex Quay,1443,53.34512917,-6.269524548
8220DB001444,Merchant's Quay,1444,53.34511841,-6.273745471
8220DB001445,Ushers Quay,1445,53.34567841,-6.27828884
8220DB001447,Guinness Store,1447,53.34662943,-6.288163738
8220DB001449,Conyngham Road Bus Garage,1449,53.34815262,-6.297881083
8220DB001450,Wellington Monument,1450,53.34814621,-6.301846758
8220DB001451,Bridgewater Business Centre,1451,53.34827807,-6.305431433
8220DB001452,Clancy Barracks,1452,53.34558366,-6.308106652
8220DB001453,Galtymore Rd (Slievenamon Rd),1453,53.33453596,-6.306742094
8220DB001454,Suir Road (O'Leary Rd),1454,53.33777534,-6.307634902
8220DB001455,GAA Grounds,1455,53.3353849,-6.305762453
8220DB001456,Galtymore Road (Galtymore Dr),1456,53.3348731,-6.308966099
8220DB001457,Galtymore Road (Benbulbin Rd),1457,53.33530245,-6.312628031
8220DB001458,Galtymore Road (Sperrin Rd),1458,53.33477041,-6.316958567
8220DB001459,Galtymore Road (Carrow Rd),1459,53.33406289,-6.319689223
8220DB001460,Galtymore Road (Galtymore Pk),1460,53.33234733,-6.321047944
8220DB001462,Galtymore Road (Cooley Road),1462,53.33045353,-6.32379486
8220DB001463,Galtymore Road (Cooley Road),1463,53.3306148,-6.323758508
8220DB001464,Galtymore Road (Sperrin Rd),1464,53.33489859,-6.316488029
8220DB001465,Galtymore Road (Galtymore Dr),1465,53.33480553,-6.308638424
8220DB001466,Galtymore Rd (Slievenamon Rd),1466,53.33452871,-6.306231846
8220DB001467,GAA Grounds,1467,53.33565716,-6.30594687
8220DB001468,Suir Road (O'Leary Rd),1468,53.33756639,-6.307477991
8220DB001469,Galtymore Road (Benbulbin Rd),1469,53.33525895,-6.313365531
8220DB001471,Islandbridge Court,1471,53.34549618,-6.308275332
8220DB001472,Bridgewater Centre,1472,53.34842925,-6.305951157
8220DB001473,Conyngham Road Bus Depot,1473,53.34829678,-6.298536245
8220DB001474,Heuston Bridge,1474,53.3479477,-6.292346693
8220DB001476,Ellis Street,1476,53.34700161,-6.284664149
8220DB001477,Arran Quay,1477,53.34594211,-6.276010222
8220DB001478,Inns Quay,1478,53.34564587,-6.272928116
8220DB001479,Upper Ormond Quay,1479,53.34591596,-6.269237344
8220DB001480,Ormond House,1480,53.34569323,-6.270613163
8220DB001481,Philipsburgh Avenue (Melrose Avenue),1481,53.36505365,-6.23988108
8220DB001482,Saint Mary's College,1482,53.37170813,-6.236450606
8220DB001484,Turlough Gardens,1484,53.36369727,-6.239936995
8220DB001485,Turlough Gardens,1485,53.36403661,-6.23978777
8220DB001486,Philipsburgh Avenue (Croydon Gardens),1486,53.37097456,-6.238509789
8220DB001487,Griffith Avenue (Charlemont Estate),1487,53.37181903,-6.23665643
8220DB001488,Saint Mary's College,1488,53.37108863,-6.234672751
8220DB001489,Saint Vincent De Paul Church,1489,53.37014946,-6.23194636
8220DB001490,Griffith Avenue (Malahide Road),1490,53.36886762,-6.228543016
8220DB001491,Griffith Avenue (Malahide Road),1491,53.36846754,-6.227627891
8220DB001492,Saint Vincent De Paul Church,1492,53.37024819,-6.23254341
8220DB001493,Saint Mary's College,1493,53.37121318,-6.235193608
8220DB001494,Croydon Gardens,1494,53.37066381,-6.235727293
8220DB001495,Croydon Park Avenue,1495,53.36874674,-6.23555105
8220DB001496,Marino Park,1496,53.36713891,-6.233799192
8220DB001499,Brian Road,1499,53.36577028,-6.23728194
8220DB001500,Outside Connolly Station,1500,53.35102074,-6.250103263
8220DB001502,Bus Stop at Train Station,1502,53.34739566,-6.254202108
8220DB001505,Parnell Street,1505,53.35401954,-6.257867324
8220DB001506,Finglas Road,1506,53.36676884,-6.272374273
8220DB001507,Saint Vincent's School,1507,53.3683903,-6.274487673
8220DB001508,Claremont Court,1508,53.3699017,-6.278318894
8220DB001509,Finglas Road,1509,53.37292562,-6.28420864
8220DB001510,Finglas Road,1510,53.37690671,-6.287295215
8220DB001511,Finglas Road (Opp Old Finglas Road),1511,53.37823452,-6.287752985
8220DB001512,Ardmore Hotel,1512,53.38212301,-6.29191128
8220DB001513,Finneber Fort,1513,53.38673856,-6.296642649
8220DB001514,Finglas Village (Seamus Ennis Road),1514,53.38945596,-6.300007246
8220DB001515,Marino Park,1515,53.36610511,-6.233180772
8220DB001518,Kildonan Road,1518,53.39059933,-6.311538989
8220DB001519,Kildonan Road,1519,53.39246092,-6.311615658
8220DB001520,Barry Road,1520,53.39391999,-6.311828558
8220DB001521,Plunkett Green,1521,53.39722109,-6.310735465
8220DB001523,Plunkett Avenue,1523,53.39786965,-6.309566884
8220DB001524,Barry Aveune,1524,53.39554707,-6.310576214
8220DB001525,Barry Road,1525,53.39406908,-6.311567033
8220DB001526,Kildonan Park,1526,53.39229753,-6.311501837
8220DB001528,Phoenix Manor,1528,53.35618623,-6.29398537
8220DB001529,Saint Canice's Church,1529,53.38845861,-6.298137581
8220DB001530,Finneber Fort,1530,53.38684592,-6.296608294
8220DB001531,Clearwater Shopping Centre,1531,53.38374345,-6.293349716
8220DB001532,Ardmore Hotel,1532,53.38168893,-6.290470518
8220DB001533,Finglas Road,1533,53.37896767,-6.287483065
8220DB001534,Ballyboggan Road,1534,53.37533284,-6.285975603
8220DB001535,Willows Estate,1535,53.37230574,-6.282354924
8220DB001536,Glasnevin Cemetery Main Gate,1536,53.36961683,-6.277263386
8220DB001537,Saint Vincent's School,1537,53.368057,-6.273193743
8220DB001538,Finglas Road,1538,53.38452013,-6.294867084
8220DB001539,Glasanaon Road,1539,53.38313558,-6.279182992
8220DB001540,Johnstown Park (Griffith Road),1540,53.38433111,-6.284185965
8220DB001547,Mellowes Park,1547,53.39524095,-6.301671338
8220DB001548,Mellowes Park,1548,53.39610095,-6.302734822
8220DB001549,Casement Road,1549,53.39742346,-6.30662211
8220DB001558,Saint Margaret's Road,1558,53.39980831,-6.303038422
8220DB001559,Casement Road,1559,53.39734091,-6.306505086
8220DB001560,Roundabout McKee Avenue,1560,53.39700733,-6.304533352
8220DB001566,Johnstown Park (Griffith Road),1566,53.3844072,-6.283852172
8220DB001567,Johnstown Park,1567,53.38401374,-6.280244997
8220DB001573,Cardiffsbridge Road,1573,53.38402395,-6.312445638
8220DB001574,Scout's Den,1574,53.38559357,-6.312849597
8220DB001575,Colaiste Ide,1575,53.38705822,-6.312821742
8220DB001576,Cappagh Road,1576,53.38931698,-6.313018072
8220DB001577,Abbottstown Road,1577,53.3898856,-6.31573199
8220DB001578,Cappagh Road,1578,53.39040373,-6.31805705
8220DB001579,Cappagh Hospital,1579,53.39352116,-6.32370812
8220DB001582,Cappagh Hospital,1582,53.39276946,-6.322023537
8220DB001584,Abbottstown Road,1584,53.38990364,-6.315099799
8220DB001585,Church of the Annunciation,1585,53.38872353,-6.312364975
8220DB001586,Colaiste Ide,1586,53.38647093,-6.312604424
8220DB001587,Cardiffsbridge Road,1587,53.38339308,-6.311688878
8220DB001591,Wellmount Road (Finglasa Road),1591,53.38713858,-6.299483188
8220DB001592,Tolka Valley Road,1592,53.3797207,-6.289226582
8220DB001593,Tolka Valley Park,1593,53.37891456,-6.294444727
8220DB001594,Gortbeigh Avenue,1594,53.37945664,-6.297158805
8220DB001595,Saint Helena's Road (Gortmore Avenue),1595,53.38073929,-6.297603676
8220DB001596,Saint Helena's Road (Farnham Drive),1596,53.38304088,-6.300804033
8220DB001597,Valeview Gardens,1597,53.380455,-6.309219643
8220DB001598,Bearnamore Estate,1598,53.38018849,-6.305637604
8220DB001599,Glenties Estate,1599,53.38082852,-6.310843332
8220DB001600,Deanstown Avenue,1600,53.38358782,-6.312748514
8220DB001601,Deanstown Drive,1601,53.38389389,-6.314690712
8220DB001602,Patrician College,1602,53.38441779,-6.318698932
8220DB001603,Eastwood Estate,1603,53.38351865,-6.318674232
8220DB001604,Rathvilly Park,1604,53.3837906,-6.316288294
8220DB001606,Saint Helena's Road,1606,53.38037047,-6.306427066
8220DB001607,Dunsink Green,1607,53.38216117,-6.303409624
8220DB001608,Saint Helena's Community Centre,1608,53.38304964,-6.299525894
8220DB001609,Cloonlara Estate,1609,53.38038402,-6.297272116
8220DB001610,Tolka Valley Road,1610,53.37876236,-6.296374818
8220DB001613,Kings Inn,1613,53.35393087,-6.272788426
8220DB001614,Constitution Hill,1614,53.35125717,-6.273737751
8220DB001615,Law Library,1615,53.34782717,-6.274597332
8220DB001616,Law Library,1616,53.34728507,-6.275024773
8220DB001617,Capuchin Mission Office,1617,53.34916952,-6.274813494
8220DB001618,Church Street,1618,53.35088706,-6.274248419
8220DB001619,Kings Inn,1619,53.35291248,-6.273220185
8220DB001620,Swords Road,1620,53.3832633,-6.244135961
8220DB001641,Swords Road,1641,53.38652684,-6.242362916
8220DB001642,Whitehall Church,1642,53.38400134,-6.243594455
8220DB001644,Dublin City University (DCU),1644,53.3866930048048,-6.25614244925029
8220DB001646,Dublin City University (DCU),1646,53.3871544300541,-6.25696551174283
8220DB001647,Law Society,1647,53.34835085,-6.282236714
8220DB001648,Arbour Place,1648,53.35109115,-6.282787472
8220DB001649,Aughrim Street,1649,53.35256992,-6.284365435
8220DB001650,Castle Avenue,1650,53.36116518,-6.209299636
8220DB001651,Vernon Avenue,1651,53.3679312,-6.194844696
8220DB001652,Clontarf Castle Entrance,1652,53.36334638,-6.206112783
8220DB001654,Blackhorse Avenue,1654,53.35614497,-6.294242415
8220DB001655,Blackhorse Avenue (Glenbeigh Avenue),1655,53.35672297,-6.296953617
8220DB001656,McKee Barracks,1656,53.35729706,-6.298763623
8220DB001657,Blackhorse Avenue,1657,53.35838291,-6.303062341
8220DB001658,Skreen Road (Ardpatrick Road),1658,53.36197963,-6.309500527
8220DB001659,Skreen Road (Navan Road),1659,53.36325975,-6.304701682
8220DB001660,Navan Road (Nephin Road),1660,53.36516773,-6.309314192
8220DB001661,Navan Road (Church),1661,53.36643506,-6.31312593
8220DB001662,Navan Road (Kinvara Estate),1662,53.36754027,-6.317560402
8220DB001664,Navan Road (Ashtown Grove),1664,53.36940831,-6.323843611
8220DB001665,Navan Road,1665,53.37064864,-6.327687262
8220DB001666,Ashtown Roundabout,1666,53.37158796,-6.330581062
8220DB001667,Ashtown Gate,1667,53.37086078,-6.33450187
8220DB001668,Old Race Course,1668,53.37083355,-6.340288879
8220DB001694,Old Race Course,1694,53.37100841,-6.339936425
8220DB001695,Ashtown Gate,1695,53.37101014,-6.334255586
8220DB001696,Navan Road,1696,53.37153232,-6.329816774
8220DB001697,Kempton Estate,1697,53.37079195,-6.327651591
8220DB001698,Navan Road (Ashtown Grove),1698,53.3695681,-6.323702084
8220DB001699,Navan Road (Ashtown Grove),1699,53.36874318,-6.321284957
8220DB001700,Navan Road (Kinvara Estate),1700,53.36770027,-6.317433878
8220DB001701,Navan Road (Church),1701,53.36657794,-6.313060177
8220DB001702,Navan Road (Nephin Road),1702,53.36562088,-6.310212874
8220DB001703,Navan Road (Nephin Road),1703,53.36471722,-6.307333528
8220DB001704,Skreen Road (Navan Road),1704,53.36304307,-6.305266238
8220DB001705,Skreen Road (Ardpatrick Road),1705,53.36218053,-6.308455817
8220DB001706,Cemetery,1706,53.36006063,-6.307277715
8220DB001707,Blackhorse Avenue,1707,53.35841907,-6.302444914
8220DB001708,McKee Barracks,1708,53.35732316,-6.298702488
8220DB001709,Blackhorse Avenue (Glenbeigh Avenue),1709,53.356859,-6.297038335
8220DB001710,Drumalee Estate,1710,53.35556071,-6.291726836
8220DB001711,The Holy Family Church,1711,53.35456878,-6.289618247
8220DB001712,Aughrim Street,1712,53.3533337,-6.286227578
8220DB001713,Stanhope Street Convent,1713,53.3519076,-6.28331046
8220DB001714,Brunswick Street,1714,53.35063759,-6.281874375
8220DB001715,Blackhall Street,1715,53.34771177,-6.282172288
8220DB001724,Clontarf Road (near Mount Prospect Ave),1724,53.3657061,-6.174426956
8220DB001725,Doyle's Lane,1725,53.36375105,-6.177065024
8220DB001726,Dollymount Park,1726,53.36228218,-6.179171243
8220DB001727,Kincora Road,1727,53.36059453,-6.182849253
8220DB001728,Conquer Hill Road,1728,53.35965605,-6.186149581
8220DB001729,Clontarf Bus Garage,1729,53.35848099,-6.190451404
8220DB001730,Vernon Court,1730,53.35822211,-6.194128309
8220DB001731,Clontarf Road at Church,1731,53.35909653,-6.196675566
8220DB001732,Oultan Road,1732,53.36009952,-6.202387772
8220DB001733,Clontarf Road (near Scoil Uí Chonaill),1733,53.36021239,-6.206304544
8220DB001734,Clontarf Road (Castle Avenue),1734,53.36033617,-6.210957104
8220DB001735,Styles Road,1735,53.36113412,-6.214424567
8220DB001736,Saint Lawrence Road,1736,53.36213297,-6.216907105
8220DB001737,Saint Lawrence Road,1737,53.36283916,-6.219657404
8220DB001738,Clontarf Road Junction Alfie Byrne Road,1738,53.36345199,-6.223989418
8220DB001739,Clontarf Road (at DART Station),1739,53.36387599,-6.226511215
8220DB001740,Clontarf Road (at DART Station),1740,53.36413241,-6.226831143
8220DB001741,Clontarf Road Junction Strandville Avenu,1741,53.36310814,-6.220818214
8220DB001742,Saint Lawrence Road,1742,53.36210873,-6.2164874
8220DB001743,Styles Road,1743,53.3610627,-6.213856593
8220DB001744,Clontarf Road (Castle Avenue),1744,53.36033045,-6.208778715
8220DB001745,Clontarf Road (near Scoil Uí Chonaill),1745,53.36032013,-6.205699017
8220DB001746,Oultan Road,1746,53.36025765,-6.202741715
8220DB001747,Clontarf Road at Church,1747,53.35931438,-6.196816613
8220DB001748,Vernon Court,1748,53.35824781,-6.193451127
8220DB001749,Clontarf Bus Garage,1749,53.3585632,-6.190538067
8220DB001750,Thornhill Lane,1750,53.36885849,-6.177793694
8220DB001751,Conquer Hill Road,1751,53.35978599,-6.185828539
8220DB001752,Seaview Point,1752,53.3610654,-6.181897643
8220DB001753,Dollymount Park,1753,53.36208269,-6.179645547
8220DB001754,Dollymount Avenue,1754,53.36412395,-6.1767636
8220DB001755,Seapark Apartments,1755,53.36630377,-6.18709938
8220DB001756,Mount Prospect Ave (Dollymount Ave),1756,53.3672007,-6.182838563
8220DB001757,Park Lawn,1757,53.36862043,-6.182222092
8220DB001758,Baymount Park,1758,53.36811148,-6.175376042
8220DB001759,Clontarf Road (near Mount Prospect Ave),1759,53.36592882,-6.174297216
8220DB001760,Seapark Road (Mount Prospect Avenue),1760,53.36597179,-6.187729587
8220DB001761,Seapark Road (Seafield Road),1761,53.36382796,-6.188015928
8220DB001762,Seafield Road East (Seafield Avenue),1762,53.36374198,-6.191235199
8220DB001763,Vernon Avenue,1763,53.3643978,-6.195369755
8220DB001764,Black Heath Court,1764,53.36592867,-6.195560504
8220DB001765,Blackheath Grove,1765,53.36656154,-6.202356124
8220DB001766,Blackheath Grove,1766,53.36508035,-6.204867844
8220DB001767,Clontarf Castle,1767,53.3638363,-6.205220676
8220DB001769,Mount Prospect Avenue,1769,53.36887634,-6.181910632
8220DB001770,Mount Prospect Avenue,1770,53.36708324,-6.18279848
8220DB001771,Saint Gabriel's Road,1771,53.36604169,-6.185232123
8220DB001772,Saint John The Baptist Cemetery,1772,53.36505589,-6.205034167
8220DB001773,Blackheath Park,1773,53.36680193,-6.203397914
8220DB001774,Blackheath Park (Blackheath Avenue),1774,53.36611179,-6.197566395
8220DB001775,Vernon Avenue,1775,53.36443077,-6.195173017
8220DB001776,Seafield Road East (Seafield Avenue),1776,53.36387752,-6.191875589
8220DB001777,Seafield Avenue,1777,53.36530287,-6.191033829
8220DB001778,Mount Prospect Avenue (Mount Prospect Park),1778,53.36660448,-6.189145349
8220DB001782,Gracefield Road,1782,53.3823895,-6.198171651
8220DB001783,Saint Brendan's School,1783,53.38379401,-6.195947538
8220DB001784,Gorsefield Court,1784,53.38462075,-6.192965989
8220DB001785,McAuley Drive,1785,53.38259561,-6.191593568
8220DB001786,Ribh Road,1786,53.38199414,-6.192235402
8220DB001788,Millbrook Road (Tonlegee Road),1788,53.39161382,-6.178791408
8220DB001789,Millbrook Road,1789,53.394262,-6.178573065
8220DB001791,GAA Sports Ground,1791,53.39664134,-6.181945192
8220DB001792,Millbrook Road,1792,53.3935243,-6.178529386
8220DB001793,Millbrook Road (Tonlegee Road),1793,53.39167509,-6.178683538
8220DB001794,Thornhill Lane,1794,53.36944061,-6.179421958
8220DB001795,Cabra Road,1795,53.3614942,-6.296853484
8220DB001796,McAuley Park,1796,53.38178889,-6.191146716
8220DB001797,McAuley Drive,1797,53.38312762,-6.191706317
8220DB001798,Ainninn Drive,1798,53.3843747,-6.194524865
8220DB001799,Mask Crescent,1799,53.38305868,-6.196655118
8220DB001800,Gracefield Road,1800,53.38230656,-6.199227448
8220DB001801,Gracefield Road,1801,53.38242372,-6.202229069
8220DB001802,Cabra Road (Carnlough Road),1802,53.36142481,-6.294512318
8220DB001803,Cabra Road (Carnlough Road),1803,53.3615005,-6.294148689
8220DB001804,Cabra Road,1804,53.36161741,-6.297299328
8220DB001805,Dunard Estate,1805,53.36115351,-6.297543202
8220DB001806,Navan Road,1806,53.362933,-6.302581002
8220DB001807,Navan Road (Old Race Course),1807,53.37441426,-6.339247862
8220DB001847,Navan Road (Old Race Course),1847,53.37307146,-6.334475728
8220DB001905,Navan Road,1905,53.36328055,-6.303002935
8220DB001906,Cabra Cross,1906,53.36120055,-6.297060523
8220DB001907,Railway Bridge,1907,53.35990473,-6.293806769
8220DB001908,Cabra Drive,1908,53.3586816,-6.291241417
8220DB001909,Prussia Street,1909,53.35688969,-6.288503693
8220DB001911,Drumalee Estate,1911,53.35659922,-6.288305004
8220DB001913,Cabra Drive,1913,53.35879713,-6.291777668
8220DB001914,Old Cabra Road,1914,53.36020657,-6.29480137
8220DB001934,Dame Street,1934,53.34412734,-6.26552496
8220DB001935,Carnegie Centre,1935,53.34387147,-6.2683289
8220DB001937,High Street,1937,53.34300535,-6.273064882
8220DB001938,Thomas Street (John Street),1938,53.34297789,-6.276760608
8220DB001939,Thomas Street (St. Catherine's Lane),1939,53.34299805,-6.280649656
8220DB001940,James Street,1940,53.34353838,-6.285719338
8220DB001941,James Street,1941,53.34334519,-6.28916641
8220DB001942,Saint James Hospital,1942,53.34225477,-6.294616719
8220DB001943,Mount Brown,1943,53.34137305,-6.298331356
8220DB001944,Old Kilmainham,1944,53.34067511,-6.303600396
8220DB001945,Emmett Road,1945,53.34055436,-6.309657382
8220DB001946,Emmet Road,1946,53.34011859,-6.316342468
8220DB001947,Emmet Road,1947,53.33981764,-6.317946186
8220DB001948,Tyrconnell Road,1948,53.33866992,-6.321970905
8220DB001949,Tyrconnell Road,1949,53.33764106,-6.323588063
8220DB001950,Church,1950,53.33602062,-6.325964118
8220DB001951,Lansdowne Valley Park,1951,53.33313442,-6.329095205
8220DB001952,Lansdowne Valley Park,1952,53.33154136,-6.330223513
8220DB001953,Entrance to Bluebell,1953,53.32999429,-6.332070615
8220DB001954,Naas Road,1954,53.32876498,-6.334791003
8220DB001955,Carriglea Industrial Estate,1955,53.32793651,-6.337901007
8220DB001956,Naas Road (Kylemore Road),1956,53.32635643,-6.343847442
8220DB001981,Naas Road (Kylemore Road),1981,53.32646983,-6.344893947
8220DB001982,Naas Road (Kylemore Road),1982,53.32718503,-6.342028791
8220DB001984,Naas Road,1984,53.32949487,-6.333636531
8220DB001985,Lansdowne Valley Park,1985,53.33292345,-6.329433784
8220DB001986,Tyrconnell Road,1986,53.33532801,-6.327207538
8220DB001987,Oblate of Mary Immaculate Church,1987,53.33633377,-6.325861755
8220DB001988,Oblate Church,1988,53.33826936,-6.322887652
8220DB001989,Camac Close,1989,53.33963546,-6.319049634
8220DB001990,Emmet Road,1990,53.34047257,-6.314676564
8220DB001992,Emmett Road,1992,53.34065429,-6.309097768
8220DB001993,Old Kilmainham,1993,53.34085345,-6.304764717
8220DB001994,Saint James's Hospital,1994,53.34142375,-6.299365591
8220DB001995,Ewington Lane,1995,53.34266599,-6.293203576
8220DB001996,James Street,1996,53.34355986,-6.288466943
8220DB001997,James Street,1997,53.34357087,-6.285477731
8220DB001998,Thomas Street (St. Catherine's Lane),1998,53.34313961,-6.280493772
8220DB002001,Saint Audeon's Church,2001,53.34331047,-6.273653305
8220DB002002,Lord Edward Street,2002,53.34377935,-6.269414006
8220DB002003,Lord Edward Street,2003,53.34403229,-6.268262306
8220DB002071,Fosters Avenue (Stillorgan Road),2071,53.30304796,-6.209932043
8220DB002072,Foster's Avenue (North Avenue),2072,53.30189465,-6.212741113
8220DB002082,Foster's Avenue (North Avenue),2082,53.30196158,-6.213008399
8220DB002083,Fosters Avenue (Stillorgan Road),2083,53.3033309,-6.209620107
8220DB002084,UCD Belfield Bridge,2084,53.30554517,-6.211628262
8220DB002085,R.T.E. Televison Studios,2085,53.31517352,-6.220171156
8220DB002086,Nutley Lane,2086,53.31811232,-6.214735259
8220DB002087,Merlyn Park,2087,53.3205823,-6.21281581
8220DB002088,Nutley Lane (Saint Vincent's Hospital),2088,53.31729646,-6.216075174
8220DB002089,Elm Park Golf Club,2089,53.31529279,-6.219730928
8220DB002094,Coombe Maternity Hospital,2094,53.33479903,-6.289898914
8220DB002095,Crumlin College,2095,53.32902827,-6.302456103
8220DB002096,Crumlin Road,2096,53.32807418,-6.306787837
8220DB002097,Iveagh Gardens,2097,53.32742356,-6.309711157
8220DB002099,Crumlin Road (Cooley Road),2099,53.32551667,-6.316602238
8220DB002101,Crumlin Childrens Hospital,2101,53.32492783,-6.318186703
8220DB002102,Drimnagh Road (Slievebloom Road),2102,53.32418692,-6.326217273
8220DB002103,Shopping Centre,2103,53.32208249,-6.329977414
8220DB002105,Long Mile Road,2105,53.32365383,-6.3375871
8220DB002181,Long Mile Road,2181,53.32390099,-6.339198779
8220DB002182,Walkinstown Parade,2182,53.32395252,-6.335158564
8220DB002183,Walkinstown Road (Kilnamanagh Road),2183,53.32170377,-6.330532606
8220DB002184,Walkinstown Road (Kilnamanagh Road),2184,53.32298721,-6.329116442
8220DB002185,Drimnagh Road (Slievebloom Road),2185,53.32425975,-6.327565509
8220DB002186,Raphoe Road,2186,53.32692409,-6.31252333
8220DB002187,Iveagh Grounds,2187,53.32803587,-6.307254771
8220DB002188,Crumlin College,2188,53.32901671,-6.302906976
8220DB002189,Crumlin Shopping Centre,2189,53.3296862,-6.30005776
8220DB002190,Dolphin's Barn,2190,53.33294594,-6.292300408
8220DB002191,Sarah Place,2191,53.34802536,-6.310428253
8220DB002192,U.C.D Boat Club,2192,53.3472452,-6.315641069
8220DB002193,Garda Boat Club,2193,53.34637515,-6.32342562
8220DB002194,Sports Grounds,2194,53.34618414,-6.328389643
8220DB002195,Chapelizod School,2195,53.34674411,-6.337589993
8220DB002196,Kings Hall,2196,53.34789646,-6.341600649
8220DB002197,Lucan Road (Chapelizod Hill Rd),2197,53.34816535,-6.346727202
8220DB002198,Lucan Road (Belgrove Park),2198,53.35062514,-6.351063289
8220DB002199,Old Lucan Road,2199,53.35195911,-6.355893866
8220DB002200,Chapelizod By Pass Bridge,2200,53.35027377,-6.352954497
8220DB002243,Lucan Road,2243,53.35196519,-6.355683327
8220DB002244,Lucan Road (Belgrove Park),2244,53.35088414,-6.351594061
8220DB002245,Lucan Road (Laurence Brook),2245,53.349463,-6.348269198
8220DB002246,Chapelizod Bridge,2246,53.34830233,-6.343642702
8220DB002247,Chapelizod School,2247,53.34675286,-6.336282916
8220DB002248,Sports Grounds,2248,53.34632051,-6.327858614
8220DB002249,Neptune Rowing Club,2249,53.34653149,-6.321121438
8220DB002250,Salmon Pool,2250,53.34743816,-6.315303016
8220DB002251,Islandbridge Park Gate,2251,53.34812284,-6.310965135
8220DB002255,Annesley Bridge,2255,53.36022987,-6.238246874
8220DB002256,Portside Court,2256,53.35834872,-6.235635137
8220DB002257,West Road,2257,53.35638197,-6.238180255
8220DB002258,Saint Joseph's Church,2258,53.35464433,-6.23798152
8220DB002259,Church Road,2259,53.35352893,-6.236705548
8220DB002260,Church Road,2260,53.35177829,-6.235020247
8220DB002261,Church Court Estate,2261,53.35263832,-6.232400881
8220DB002262,Merchants Road,2262,53.35352268,-6.226580589
8220DB002264,Dublin Graving Docks,2264,53.35113542,-6.222593783
8220DB002265,Alexandra Road (Branch Road),2265,53.35104955,-6.219848379
8220DB002266,Branch Road South,2266,53.35085045,-6.21494459
8220DB002269,Breakwater Road South,2269,53.35030754,-6.203325616
8220DB002270,Irish Ferries Terminal,2270,53.34568793,-6.195604403
8220DB002274,Alexandra Road,2274,53.35018608,-6.203616132
8220DB002277,Docklands Innovation Industrial Park,2277,53.3541264,-6.227892551
8220DB002278,Bargy Road,2278,53.35448639,-6.229740457
8220DB002279,Caledon Road,2279,53.35295911,-6.231606442
8220DB002280,Church Road,2280,53.3523115,-6.237041226
8220DB002281,Church Road,2281,53.35365491,-6.23671537
8220DB002282,Saint Joseph's Church,2282,53.35484094,-6.238514238
8220DB002283,Portside Court,2283,53.35832599,-6.235921537
8220DB002310,Werburgh Street,2310,53.3424457,-6.269798428
8220DB002311,Kevin Street Garda Station,2311,53.33830347,-6.270506748
8220DB002312,The Coombe,2312,53.33887864,-6.275469226
8220DB002313,Ardee Court,2313,53.33874212,-6.278463173
8220DB002314,Cork Street,2314,53.33835368,-6.280821493
8220DB002315,Marion Villas,2315,53.33753622,-6.285224276
8220DB002317,Crumlin Bowling Club,2317,53.32340916,-6.318846905
8220DB002318,Somerville Avenue,2318,53.32197081,-6.318828396
8220DB002319,Garda Station,2319,53.31950936,-6.315097497
8220DB002320,Whitehall Road West (Kimmage Rd),2320,53.31587803,-6.316996618
8220DB002321,Crumlin Crossroads,2321,53.31339544,-6.320050926
8220DB002322,Whitehall Road West,2322,53.3102283,-6.321090734
8220DB002323,Millgate Drive,2323,53.30810734,-6.320468661
8220DB002324,Whitehall Road West,2324,53.30978644,-6.320988018
8220DB002325,Whitehall Road West (Limekiln Ln),2325,53.3121083,-6.321197045
8220DB002326,Crumlin Crossroads,2326,53.31369981,-6.319963931
8220DB002327,St. Agnes Road (Cromwellsfort Rd),2327,53.31681079,-6.316854849
8220DB002328,Saint Agnes Church,2328,53.31957797,-6.315500077
8220DB002329,Saint Agnes Road,2329,53.3208405,-6.317071523
8220DB002330,Saint Agnes Road,2330,53.32214762,-6.319256774
8220DB002331,Saint Mary's Road,2331,53.32456237,-6.317765723
8220DB002332,Walkinstown Road (Kilnamanagh Road),2332,53.32105346,-6.330948278
8220DB002333,Walkinstown Road (Walkinstown Roundabout),2333,53.31783257,-6.332650003
8220DB002378,Walkinstown Road (Walkinstown Roundabout),2378,53.31853137,-6.332487669
8220DB002379,Marion Villas,2379,53.33783322,-6.284626699
8220DB002380,Cork Street,2380,53.33850586,-6.280154615
8220DB002382,Brabazon Row,2382,53.33885781,-6.278383426
8220DB002383,Saint Patrick's Cathedral,2383,53.33944909,-6.272652946
8220DB002385,Back Avenue,2385,53.34226187,-6.271998577
8220DB002386,New Street South,2386,53.33790737,-6.272324817
8220DB002387,New Street South,2387,53.33658421,-6.272813783
8220DB002388,Clanbrassil Street,2388,53.33445859,-6.274371224
8220DB002389,Harold's Cross,2389,53.32492005,-6.279199883
8220DB002390,Mount Argus Park,2390,53.32151943,-6.283975193
8220DB002391,Mount Argus Church,2391,53.3201973,-6.286414954
8220DB002392,Mount Argus Community Centre,2392,53.31889113,-6.291225546
8220DB002393,Lower Kimmage Road (Aideen Avenue),2393,53.31520361,-6.295455305
8220DB002394,Poddle Park,2394,53.31327809,-6.297828301
8220DB002395,Fortfield Road,2395,53.31172639,-6.300576429
8220DB002396,Wainsfort Estate,2396,53.30881885,-6.302162581
8220DB002397,College Drive,2397,53.30658895,-6.300840511
8220DB002398,Fortfield Estate,2398,53.30523423,-6.299753892
8220DB002409,Fortfield Estate,2409,53.30539101,-6.300032768
8220DB002410,College Drive,2410,53.30722567,-6.301370452
8220DB002411,Wainsfort Estate,2411,53.30916405,-6.302419005
8220DB002412,Lavarna Estate,2412,53.31093501,-6.301808463
8220DB002413,Kimmage Road West (Whitehall Road),2413,53.31292889,-6.305496355
8220DB002414,Kimmage Road West,2414,53.31406549,-6.310854404
8220DB002415,Royston Village,2415,53.31503878,-6.313577601
8220DB002416,Cromwellsfort Road (Whitehall Road),2416,53.31632942,-6.31777435
8220DB002417,Cromwellsfort Road (Cherry Grove),2417,53.31669102,-6.323028439
8220DB002418,Cromwellsfort Road (Bigger Road),2418,53.31698939,-6.326994266
8220DB002419,Cromwell's Fort Road (Walkinstown Roundabout),2419,53.31706175,-6.330233497
8220DB002431,Cromwell's Fort Road (Walkinstown Roundabout),2431,53.317203,-6.33069328
8220DB002432,Cromwellsfort Road (Bigger Road),2432,53.31701326,-6.325492379
8220DB002433,Cromwellsfort Road (Cherry Grove),2433,53.31657704,-6.320676434
8220DB002434,Kimmage Road West,2434,53.31601719,-6.316030553
8220DB002435,Westbrook,2435,53.31426885,-6.311251606
8220DB002436,Kimmage Road West,2436,53.31369671,-6.308932882
8220DB002437,Kimmage Road West (Whitehall Road),2437,53.31265054,-6.302355691
8220DB002438,Lower Kimmage Road (Fortfield Road),2438,53.31248033,-6.299240782
8220DB002439,Poddle Park,2439,53.31354566,-6.297682579
8220DB002440,Lower Kimmage Road (Aideen Avenue),2440,53.31639168,-6.294312273
8220DB002441,Mount Argus Community Centre,2441,53.31906095,-6.29115872
8220DB002442,Mount Argus Church,2442,53.3204522,-6.286014458
8220DB002443,Brookfield,2443,53.32189218,-6.283644996
8220DB002444,Lower Kimmage Road,2444,53.32429752,-6.27966029
8220DB002448,Healthcare Centre,2448,53.31924615,-6.304135298
8220DB002449,Armagh Road,2449,53.32097598,-6.305057425
8220DB002450,Saint Agnes Primary School,2450,53.3202219,-6.307654142
8220DB002451,Saint Agnes Park,2451,53.3192019,-6.314329073
8220DB002452,Saint Peter's Road (Walkinstown Roundabout),2452,53.31614286,-6.332010438
8220DB002453,Saint Peter's Road (Saint James's Road),2453,53.31481869,-6.330516173
8220DB002462,St.James's Road (St.Peter's Road),2462,53.31388754,-6.330132279
8220DB002463,Saint Peter's Road (Walkinstown Roundabout),2463,53.31530424,-6.331172624
8220DB002464,Stannaway Avenue,2464,53.31950684,-6.313011146
8220DB002465,Armagh Road (Captain's Road),2465,53.31997927,-6.308924636
8220DB002466,Scoil Colm,2466,53.32065402,-6.306436174
8220DB002467,Health Centre,2467,53.31923397,-6.303910626
8220DB002471,Larkfield Park,2471,53.31878938,-6.289143189
8220DB002472,Clareville Road,2472,53.31767769,-6.285585294
8220DB002473,Clareville Road,2473,53.31789879,-6.28346003
8220DB002474,Clareville Road,2474,53.31869507,-6.281957069
8220DB002475,Kenilworth Park,2475,53.31886567,-6.28007393
8220DB002476,Kenilworth Square North,2476,53.31903721,-6.277635355
8220DB002477,Kenilworth Square East,2477,53.3198615,-6.274344848
8220DB002478,Grosvenor Road,2478,53.32053159,-6.269724476
8220DB002479,Grosvenor Road,2479,53.32023335,-6.270231899
8220DB002480,Kenilworth Square East,2480,53.31958303,-6.274356084
8220DB002481,Kenilworth Square North,2481,53.31873807,-6.278082699
8220DB002482,Clareville Road,2482,53.31892063,-6.281392627
8220DB002483,Westfield Road,2483,53.31841855,-6.282103268
8220DB002484,Larkfield Park,2484,53.31853764,-6.289138249
8220DB002485,Sundrive Road,2485,53.31978238,-6.291325031
8220DB002486,Sundrive Road,2486,53.32107518,-6.293104722
8220DB002487,Stannaway Road,2487,53.32180739,-6.295282155
8220DB002488,Stannaway Road,2488,53.32035521,-6.298702456
8220DB002489,Stannaway Road,2489,53.31957091,-6.300429841
8220DB002490,Captain's Road,2490,53.31953735,-6.309452466
8220DB002491,Captain's Road (Captain's Avenue),2491,53.31802744,-6.308191275
8220DB002492,Stannaway Court,2492,53.31629716,-6.307869473
8220DB002493,Captain's Road (Captain's Avenue),2493,53.31832128,-6.308629953
8220DB002494,Clonfert Road,2494,53.3196447,-6.300562004
8220DB002495,Stannaway Road,2495,53.32124515,-6.296820688
8220DB002496,Sundrive Road,2496,53.32200325,-6.293893303
8220DB002497,Sundrive Road,2497,53.32032075,-6.29188894
8220DB002498,IFSC Custom House Quays,2498,53.34824332,-6.250096866
8220DB002499,Jury's Inn Custom House Quay,2499,53.34806517,-6.247145101
8220DB002500,Samuel Beckett Bridge,2500,53.34775116,-6.242907179
8220DB002501,North Wall Quay (New Wapping Street),2501,53.34737569,-6.236343688
8220DB002507,The 02 Arena (Point Depot),2507,53.34820045,-6.227101947
8220DB002508,Docklands main gate,2508,53.3528549,-6.225797107
8220DB002561,Donomore Crescent,2561,53.27276745,-6.384304333
8220DB002634,Lower Clanbrassil Street,2634,53.33290004,-6.275365088
8220DB002635,Lower Clanbrassil Street,2635,53.33424183,-6.27492054
8220DB002636,New Street South,2636,53.33658044,-6.273174332
8220DB002637,Outside Heuston Train Station,2637,53.34588385,-6.293841039
8220DB002638,Saint John's Road West,2638,53.34570388,-6.296972319
8220DB002640,Kilmainham Jail,2640,53.34208721,-6.310002243
8220DB002641,Camac Court,2641,53.34196558,-6.315383615
8220DB002642,Grattan Crescent,2642,53.34118192,-6.319724687
8220DB002643,Sarsfield Road,2643,53.34152307,-6.320972798
8220DB002644,Sarsfield Medical Centre,2644,53.34199038,-6.327367256
8220DB002645,Lally Road,2645,53.34169632,-6.33075786
8220DB002646,Decies Road (O'Moore Road),2646,53.34149407,-6.33364924
8220DB002647,Markievicz Park,2647,53.34064707,-6.338007398
8220DB002648,Decies Road (Garryowen Rd),2648,53.33972302,-6.342653701
8220DB002649,Decies Road (Ramillies Rd),2649,53.33911037,-6.345786032
8220DB002650,Landen Road,2650,53.33776556,-6.346679023
8220DB002652,Kylemore Road (Kylemore Avenue),2652,53.33884761,-6.348228982
8220DB002653,Ballyfermot Crescent,2653,53.34021992,-6.348671523
8220DB002654,Kylemore Road (Ballyfermot Road),2654,53.34128326,-6.348870721
8220DB002655,Ballyfermot Parade,2655,53.34213795,-6.352832566
8220DB002656,Ballyfermot Road (Le Fanu Road),2656,53.34262329,-6.358701097
8220DB002657,Le Fanu Park,2657,53.34131685,-6.361739856
8220DB002658,Oranmore Road,2658,53.33916223,-6.361266814
8220DB002667,Clifden Road,2667,53.34069742,-6.361793638
8220DB002668,Community Centre,2668,53.34302775,-6.363281252
8220DB002670,Spiddal Park,2670,53.34038973,-6.36754218
8220DB002672,Ballyfermot Road (Blackditch Road),2672,53.34333076,-6.367685142
8220DB002688,Ballyfermot Road (Blackditch Road),2688,53.3434633,-6.368175697
8220DB002689,Blackditch Drive,2689,53.34310579,-6.363728821
8220DB002696,Ballyfermot Road (Le Fanu Road),2696,53.34268741,-6.358788745
8220DB002697,Ballyfermot Parade,2697,53.3422689,-6.353202977
8220DB002700,Kylemore Road (Ballyfermot Road),2700,53.34126991,-6.348555859
8220DB002701,Kylemore Roundabout,2701,53.34019717,-6.348326997
8220DB002702,Kylemore Road (Landen Road),2702,53.33807656,-6.347718174
8220DB002703,Thomond Road,2703,53.3382845,-6.346508778
8220DB002704,Decies Road (Ramillies Rd),2704,53.33923908,-6.345345548
8220DB002706,Decies Road (Garryowen Rd),2706,53.34003307,-6.341680552
8220DB002708,Decies Road (O'Moore Road),2708,53.34183329,-6.332840045
8220DB002709,Longmeadows Park,2709,53.34299236,-6.333455644
8220DB002710,Ballyfermot Road,2710,53.34211488,-6.339497198
8220DB002711,Markievicz Park,2711,53.34178332,-6.341507503
8220DB002712,Ballyfermot Road,2712,53.34245964,-6.345551249
8220DB002713,Ballyfermot Road,2713,53.34248045,-6.347052288
8220DB002714,Markievicz Park,2714,53.3419049,-6.341848204
8220DB002715,Ballyfermot Road,2715,53.34255171,-6.338594133
8220DB002716,Longmeadows Park,2716,53.34284042,-6.332230046
8220DB002717,Strangford Garden,2717,53.35723411,-6.237454003
8220DB002718,Sarsfield Road,2718,53.34228205,-6.327656207
8220DB002719,Sarsfield Road,2719,53.34164556,-6.32009693
8220DB002720,St Mary's Road North,2720,53.35205525,-6.23308598
8220DB002721,Con Colbert Road (South Circular Road),2721,53.34327143,-6.310481064
8220DB002722,Memorial Park,2722,53.34343689,-6.311375653
8220DB002726,Slieve Bloom Park,2726,53.32381523,-6.330480194
8220DB002727,Drimnagh Castle School,2727,53.32375897,-6.332884293
8220DB002728,Walkinstown Avenue Park,2728,53.32136125,-6.339477547
8220DB002729,Walkinstown Avenue,2729,53.31910121,-6.335962839
8220DB002730,Walkinstown Avenue (Walkinstown Roundabout),2730,53.31793522,-6.334207024
8220DB002774,Walkinstown Avenue (Walkinstown Roundabout),2774,53.31825154,-6.334975222
8220DB002775,Walkinstown Avenue (Long Mile Road),2775,53.32276783,-6.341089206
8220DB002777,Walkinstown Avenue,2777,53.31916055,-6.336350797
8220DB002778,Drimnagh Castle School,2778,53.32401504,-6.331913543
8220DB002780,Walkinstown Avenue,2780,53.32567565,-6.342072307
8220DB002781,Kylemore Road,2781,53.32795399,-6.343680465
8220DB002782,Kylemore Road (Bluebell Avenue),2782,53.33066807,-6.34560224
8220DB002783,Kylemore Road (Jamestown Road),2783,53.33543995,-6.346844061
8220DB002784,Kylemore Road (Jamestown Road),2784,53.33523063,-6.346656951
8220DB002785,Kylemore Road (Bluebell Avenue),2785,53.33002111,-6.344966659
8220DB002786,Kylemore Road,2786,53.32780609,-6.343385929
8220DB002787,Walkinstown Avenue,2787,53.32510053,-6.341434064
8220DB002788,Castlewood Park,2788,53.32282945,-6.263326579
8220DB002789,Charleston Road,2789,53.32369125,-6.259553584
8220DB002790,Oakley Road,2790,53.32462831,-6.256633069
8220DB002791,Charleston Road (Ranelagh Road),2791,53.32501389,-6.255341285
8220DB002793,Belgrave Square North,2793,53.32325282,-6.260922498
8220DB002794,Castlewood Avenue,2794,53.32261031,-6.264326247
8220DB002795,Upper Leeson Street,2795,53.32852078,-6.246249985
8220DB002796,Pembroke Road,2796,53.33273542,-6.240701615
8220DB002797,Pembroke Road,2797,53.33239469,-6.236496386
8220DB002798,Pembroke Road,2798,53.33199889,-6.23586707
8220DB002799,Pembroke Road,2799,53.33269178,-6.242009736
8220DB002800,Sandymount Avenue,2800,53.32711868,-6.22257149
8220DB002801,Wilfield Park,2801,53.32925314,-6.218639144
8220DB002804,Newgrove Avenue,2804,53.33232226,-6.210508164
8220DB002806,Sandymount Avenue,2806,53.33037714,-6.216265063
8220DB002807,Sandymount Avenue,2807,53.32937576,-6.218423837
8220DB002808,Outside Train Station,2808,53.32756632,-6.221246707
8220DB002809,Outside Train Station,2809,53.34302651,-6.249844935
8220DB002810,Merrion Square West,2810,53.34078725,-6.250987911
8220DB002811,Upr Merrion Street (Opp. Natural History Museum),2811,53.33935862,-6.252247785
8220DB002812,Mercer Charlotte House,2812,53.33192733,-6.262221251
8220DB002813,Ranelagh Road,2813,53.32870235,-6.258643938
8220DB002814,Ranelagh Road (Charleston Road),2814,53.32602435,-6.25560031
8220DB002815,Little Grove,2815,53.31585056,-6.245238592
8220DB002816,Glenmalure Square,2816,53.31425655,-6.246249537
8220DB002817,Alexandra College,2817,53.31115193,-6.247832557
8220DB002818,Emmet House,2818,53.30794012,-6.246403417
8220DB002819,Dundrum Road,2819,53.30548489,-6.245693737
8220DB002820,Dundrum Retail Park,2820,53.30325732,-6.245184866
8220DB002896,Dundrum Road,2896,53.30598402,-6.246018407
8220DB002898,Alexandra College,2898,53.31116554,-6.248147161
8220DB002899,Garrynure,2899,53.31636059,-6.245082582
8220DB002900,Ranelagh Road (Charleston Road),2900,53.3259273,-6.255724373
8220DB002901,Mount Pleasent Park,2901,53.32733368,-6.258474485
8220DB002902,Ranelagh Road,2902,53.32887806,-6.2589821
8220DB002903,Charlemont Flats,2903,53.33196719,-6.262489899
8220DB002907,Orchard Lawns,2907,53.34025506,-6.372157728
8220DB002908,Spiddal Park,2908,53.33969494,-6.367343459
8220DB002910,Spiddal Road,2910,53.34106578,-6.371631256
8220DB002912,Parliament Street,2912,53.34463026,-6.267351927
8220DB002914,Stratford Estate,2914,53.31095498,-6.273773676
8220DB002915,Zion Road,2915,53.30939898,-6.273701397
8220DB002916,Victoria Road,2916,53.30763729,-6.274942975
8220DB002917,Meadowbank Estate,2917,53.3074868,-6.277590151
8220DB002918,Bushy Park Road,2918,53.30737142,-6.280806135
8220DB002957,McKee Avenue,2957,53.3962158,-6.302594914
8220DB002958,Mellowes Park,2958,53.39437924,-6.301119216
8220DB002985,Bushy Park Road,2985,53.30729689,-6.283120087
8220DB002986,Meadowbank Estate,2986,53.30759805,-6.276580248
8220DB002988,Zion Road,2988,53.30838044,-6.273502389
8220DB002989,Rostrevor Terrace,2989,53.30803199,-6.270545162
8220DB002990,Orwell Park,2990,53.30620462,-6.267257712
8220DB002999,Orwell Park,2999,53.30603438,-6.267294617
8220DB003000,Rostrevor Terrace,3000,53.30786197,-6.270597054
8220DB003001,Orwell Road (Zion Road),3001,53.31018223,-6.273789849
8220DB003002,Stratford Estate,3002,53.31121236,-6.274168495
8220DB003011,Bird Avenue (Dundrum Road),3011,53.30514209,-6.244387303
8220DB003012,Bird Avenue (Dundrum Road),3012,53.30528206,-6.244126465
8220DB003014,Harlech Downs Estate,3014,53.30014871,-6.233099232
8220DB003015,Larchfield Road,3015,53.2984684,-6.233738726
8220DB003030,Larchfield Road,3030,53.29915696,-6.233500261
8220DB003031,Harlech Downs Estate,3031,53.30142194,-6.233496791
8220DB003353,Downpatrick Road,3353,53.3277326,-6.297943488
8220DB003354,Sundrive Road #1,3354,53.32639027,-6.297096152
8220DB003355,Clogher Road,3355,53.32547316,-6.297703155
8220DB003356,Kildare Road (Bangor Road),3356,53.32478896,-6.300777896
8220DB003357,Clonmacnoise Grove,3357,53.32196465,-6.301895884
8220DB003358,Clonmacnoise Road,3358,53.32112299,-6.303385375
8220DB003360,Clonmacnoise Road,3360,53.32176953,-6.303975185
8220DB003361,Sundrive Road #1,3361,53.32623949,-6.297237273
8220DB003362,Sundrive Road #1,3362,53.32742782,-6.298000661
8220DB003562,Glenmalure Square,3562,53.31454466,-6.24628275
8220DB003699,Stockhole Lane,3699,53.43508222,-6.22789701
8220DB003952,Crumlin Road,3952,53.33165635,-6.294514049
8220DB004319,Victoria Quay,4319,53.34676557,-6.292018441
8220DB004320,Outside Heuston Train Station,4320,53.34661221,-6.291979511
8220DB004322,Ashington Gardens,4322,53.37343703,-6.311241069
8220DB004338,St Patrick Cathedral St. Patrick's Close,4338,53.3393168747019,-6.27159204785768
8220DB004363,Dunsink Green,4363,53.38170389,-6.303487935
8220DB004364,Mater Christi School,4364,53.39264243,-6.321938317
8220DB004365,I.D.A. Poppintree,4365,53.40210984,-6.283590915
8220DB004366,Clune Road,4366,53.39120618,-6.294795282
8220DB004367,Poppintree Park Lane West,4367,53.39873408,-6.289486495
8220DB004368,Poppintree Park Lane West,4368,53.39881486,-6.288851642
8220DB004369,Finglas Business Park,4369,53.39722136,-6.292434436
8220DB004371,Carnlough Road,4371,53.36595574,-6.292693405
8220DB004372,West Park Drive,4372,53.38204826,-6.276085047
8220DB004375,Jamestown Road,4375,53.39166397,-6.296641429
